[
 {
  "name": "La Saline les Bains",
  "lat": -21.09721,
  "lon": 55.24911,
  "country": "FR",
  "source": "BASULM",
  "url": "https://basulm.ffplum.fr/carte-des-terrains.html",
  "access": "Règles spécifiques d'accès",
  "city": "La-Saline-les-Bains",
  "manager": "AIRSPORTS REUNION",
  "last": "2026-03-12",
  "notes": "Main gauche  Eviter survol zone urbanisée"
 },
 {
  "name": "Cambaie",
  "lat": -20.96326,
  "lon": 55.28162,
  "country": "FR",
  "source": "BASULM",
  "url": "https://basulm.ffplum.fr/carte-des-terrains.html",
  "access": "Base ULM Accès privé",
  "city": "Saint-Paul",
  "manager": "Pôle Aéronautique de Cambaie",
  "last": "2026-01-05",
  "notes": "Contact radio auto-info 122.100 MHz obligatoire. Attention activité aéromodélisme au nord de la plateforme : verticale terrain 1000 ft ASFC minimum. Activités o"
 },
 {
  "name": "Grand Coude",
  "lat": -21.28881,
  "lon": 55.62356,
  "country": "FR",
  "source": "BASULM",
  "url": "https://basulm.ffplum.fr/carte-des-terrains.html",
  "access": "AltiSurface. Contact préalable impératif.",
  "city": "Saint-Joseph",
  "manager": "L. SONNIER",
  "last": "2025-10-07",
  "notes": "Seuil de piste 08 à 3250 pieds"
 },
 {
  "name": "Uca",
  "lat": -20.98588,
  "lon": 55.66451,
  "country": "FR",
  "source": "BASULM",
  "url": "https://basulm.ffplum.fr/carte-des-terrains.html",
  "access": "Base ULM Autorisation OBLIGATOIRE",
  "city": "Bras-Panon",
  "manager": "DANIEL DUBERVILLE ( PRESIDENT )",
  "last": "2025-10-07",
  "notes": "Verticale 1000 pieds puis descente vent ar 400/500 pieds"
 },
 {
  "name": "Adventure Réunion Paramoteur",
  "lat": -21.11206,
  "lon": 55.2617,
  "country": "FR",
  "source": "BASULM",
  "url": "https://basulm.ffplum.fr/carte-des-terrains.html",
  "access": "Base Paramoteurs Libre Ouvert aux ULM Autorisation OBLIGATOIRE",
  "city": "Trois-bassins",
  "manager": "ADVENTURE REUNION PARAMOTEUR",
  "last": "2025-10-07",
  "notes": "main gauche 300 ft AGL. survol des habitation interdite."
 },
 {
  "name": "Dzaoudzi Pamandzi",
  "lat": -12.8046,
  "lon": 45.27957,
  "country": "FR",
  "source": "BASULM",
  "url": "https://basulm.ffplum.fr/carte-des-terrains.html",
  "access": "Aérodrome C.A.P. Ouvert aux ULM Autorisation OBLIGATOIRE",
  "city": "Pamandzi",
  "manager": "",
  "last": "2025-10-07",
  "notes": "Consulter VAC sur le site du SIA (onglet AIP / eAIP RUN / AD2 Aérodromes)"
 },
 {
  "name": "Roland-Garros",
  "lat": -20.89428,
  "lon": 55.51943,
  "country": "FR",
  "source": "BASULM",
  "url": "https://basulm.ffplum.fr/carte-des-terrains.html",
  "access": "Aérodrome C.A.P. Ouvert aux ULM Autorisation OBLIGATOIRE",
  "city": "Sainte-Marie",
  "manager": "",
  "last": "2025-10-07",
  "notes": ""
 },
 {
  "name": "Saint Pierre Pierrefonds",
  "lat": -21.32168,
  "lon": 55.42562,
  "country": "FR",
  "source": "BASULM",
  "url": "https://basulm.ffplum.fr/carte-des-terrains.html",
  "access": "Aérodrome C.A.P. Libre d'accès aux ULM",
  "city": "Saint-Pierre",
  "manager": "SYNDICAT MIXTE DE PIERREFONDS",
  "last": "2025-10-07",
  "notes": "Voir VAC sur site du SIA (Rubrique eAIP/AIP RUN, partie 3 AD)"
 },
 {
  "name": "La Tranclière",
  "lat": 46.09576,
  "lon": 5.28602,
  "country": "FR",
  "source": "BASULM",
  "url": "https://basulm.ffplum.fr/carte-des-terrains.html",
  "access": "Aérodrome Privé Avec Restrictions Autorisation OBLIGATOIRE",
  "city": "La Tranclière",
  "manager": "Président Emeriat Roger",
  "last": "2025-09-25",
  "notes": "Tour de piste impératif du côté autoroute.  Ne pas voler au dessus du village de la Tranclière.  Brume presque toujours dégagée."
 },
 {
  "name": "Lavours",
  "lat": 45.79572,
  "lon": 5.77395,
  "country": "FR",
  "source": "BASULM",
  "url": "https://basulm.ffplum.fr/carte-des-terrains.html",
  "access": "Base ULM Privé Avec Restrictions Autorisation OBLIGATOIRE",
  "city": "Lavours",
  "manager": "Club ULM de Lavours",
  "last": "2026-06-15",
  "notes": "TDP à l'Est sur le Rhône accolé 1200ft QNH. Interdiction de survol des villages en rouge sur la photo. Attention aux rouleaux par vent de travers.  1 TDP max aé"
 },
 {
  "name": "Corbonod Seyssel",
  "lat": 45.96144,
  "lon": 5.81799,
  "country": "FR",
  "source": "BASULM",
  "url": "https://basulm.ffplum.fr/carte-des-terrains.html",
  "access": "Aérodrome Privé Avec Restrictions Autorisation OBLIGATOIRE",
  "city": "Corbonod",
  "manager": "Association Aeronautique de Corbonod",
  "last": "2026-03-10",
  "notes": "Suivre Imperativement le Plan de Tours de Piste Arrivée dans axe de la piste puis du centre vent arrière main gauche pour Piste 01 ou 19 Attention - Zone Biotop"
 },
 {
  "name": "Crottet Le Bief",
  "lat": 46.28513,
  "lon": 4.88604,
  "country": "FR",
  "source": "BASULM",
  "url": "https://basulm.ffplum.fr/carte-des-terrains.html",
  "access": "Base ULM Autorisation OBLIGATOIRE",
  "city": "Crottet",
  "manager": "",
  "last": "2024-05-04",
  "notes": "Atterrissage en 19 Décollage en 01 préférentiel   TDP à l'Est, intégration vent arrière 19 préférentiel par le travers du seuil 01 afin d'éviter le survol des h"
 },
 {
  "name": "Izenave",
  "lat": 46.02736,
  "lon": 5.52402,
  "country": "FR",
  "source": "BASULM",
  "url": "https://basulm.ffplum.fr/carte-des-terrains.html",
  "access": "Base ULM Accès privé",
  "city": "Izenave",
  "manager": "Pierre PELISSON",
  "last": "2026-05-07",
  "notes": "Piste située en contrebas à l'est de l'altisurface de CORLIER qui est à survoler après auto-information en 125.335   Il est préférable d'appeler avant Pierre PE"
 },
 {
  "name": "Polliat",
  "lat": 46.25601,
  "lon": 5.14942,
  "country": "FR",
  "source": "BASULM",
  "url": "https://basulm.ffplum.fr/carte-des-terrains.html",
  "access": "Base ULM Autorisation OBLIGATOIRE",
  "city": "Polliat",
  "manager": "Alain Benonnier",
  "last": "2023-04-14",
  "notes": ""
 },
 {
  "name": "Ailes De Sergy",
  "lat": 46.25961,
  "lon": 6.02366,
  "country": "FR",
  "source": "BASULM",
  "url": "https://basulm.ffplum.fr/carte-des-terrains.html",
  "access": "Base ULM Privé Avec Restrictions Autorisation OBLIGATOIRE",
  "city": "Sergy",
  "manager": "Ailes De Sergy",
  "last": "2023-04-14",
  "notes": "Terrain privé, a utiliser uniquement en cas d'urgence (panne) ou avec autorisation à obtenir via ads@sergy.fr / 06 60 91 73 29"
 },
 {
  "name": "Mionnay",
  "lat": 45.90046,
  "lon": 4.89606,
  "country": "FR",
  "source": "BASULM",
  "url": "https://basulm.ffplum.fr/carte-des-terrains.html",
  "access": "Base ULM Privé Avec Restrictions Autorisation OBLIGATOIRE",
  "city": "Mionnay",
  "manager": "MICROPLANE",
  "last": "2025-03-11",
  "notes": "TDP Ouest (Coté autoroute) 1300 ft  ATTENTION CONTACT PREALABLE ET AUTORISATION ECRITE OBLIGATOIRE terrain court Fortes turbulences possibles en courte finale 1"
 },
 {
  "name": "Rhône Lavours",
  "lat": 45.81088,
  "lon": 5.78132,
  "country": "FR",
  "source": "BASULM",
  "url": "https://basulm.ffplum.fr/carte-des-terrains.html",
  "access": "HydroSurface privée. Autorisation OBLIGATOIRE",
  "city": "Lavours",
  "manager": "",
  "last": "2021-08-05",
  "notes": "Surveiller trafic fluvial et plaisance. Lignes haute tension au-dessus du barrage. Le survol à basse altitude de la réserve naturelle du Marais de Lavours et de"
 },
 {
  "name": "Montrevel en Bresse",
  "lat": 46.34499,
  "lon": 5.14222,
  "country": "FR",
  "source": "BASULM",
  "url": "https://basulm.ffplum.fr/carte-des-terrains.html",
  "access": "HydroSurface Libre Ouvert aux ULM Autorisation OBLIGATOIRE",
  "city": "Montrevel-en-Bresse",
  "manager": "Gémilis Aéro",
  "last": "2021-05-06",
  "notes": ""
 },
 {
  "name": "Tallissieu",
  "lat": 45.8717,
  "lon": 5.72696,
  "country": "FR",
  "source": "BASULM",
  "url": "https://basulm.ffplum.fr/carte-des-terrains.html",
  "access": "Aérodrome Privé Ouvert aux ULM",
  "city": "Chavornay",
  "manager": "",
  "last": "2025-08-06",
  "notes": "main gauche à 300 ft"
 },
 {
  "name": "Chaneins",
  "lat": 46.10627,
  "lon": 4.85101,
  "country": "FR",
  "source": "BASULM",
  "url": "https://basulm.ffplum.fr/carte-des-terrains.html",
  "access": "Base ULM Accès privé",
  "city": "Chaneins",
  "manager": "",
  "last": "2023-04-14",
  "notes": "TDP A L'OUEST 19 main droite, 01 main gauche .CONTACT PREALABLE OBLIGATOIRE NE PAS SURVOLER LA MAISON 300M AU NORD Attention, sortie de 19 en \"entonnoir\" entre "
 },
 {
  "name": "Gite de l'aviateur",
  "lat": 46.40128,
  "lon": 5.04592,
  "country": "FR",
  "source": "BASULM",
  "url": "https://basulm.ffplum.fr/carte-des-terrains.html",
  "access": "Base ULM Accès privé",
  "city": "Saint-Jean-Sur-Reyssouze",
  "manager": "Stéphane",
  "last": "2023-04-14",
  "notes": "Eviter survol Saint jean et zones entourées d'un cercle rouge. Tour de piste à l'ouest à 800 ft/sol.  QFU 19 préferentiel .  ATTENTION ligne haute tension  à 10"
 },
 {
  "name": "Malafretaz",
  "lat": 46.33393,
  "lon": 5.14097,
  "country": "FR",
  "source": "BASULM",
  "url": "https://basulm.ffplum.fr/carte-des-terrains.html",
  "access": "Base ULM Accès privé",
  "city": "Malafretaz",
  "manager": "AERO 01",
  "last": "2023-04-14",
  "notes": "cause environnement LDG préférentiel en 27 - Vente arrière Main Droite au dessus de la RD base rapprochée en 09 Main Gauche pour éviter habitations à l'OUEST.et"
 },
 {
  "name": "Chamonet",
  "lat": 45.79772,
  "lon": 5.62475,
  "country": "FR",
  "source": "BASULM",
  "url": "https://basulm.ffplum.fr/carte-des-terrains.html",
  "access": "Aérodrome Privé Ouvert aux ULM",
  "city": "Contrevoz",
  "manager": "",
  "last": "2025-11-03",
  "notes": "Tour de piste à l’ouest le long de la montagne à 2000 pieds, éviter le survol du village et de l’écurie du côté nord. 17 préférentiel"
 },
 {
  "name": "CORBENY  Azur Ulm",
  "lat": 49.46107,
  "lon": 3.84838,
  "country": "FR",
  "source": "BASULM",
  "url": "https://basulm.ffplum.fr/carte-des-terrains.html",
  "access": "Base ULM Accès privé",
  "city": "Corbeny",
  "manager": "",
  "last": "2026-06-02",
  "notes": "Piste \"technique\"  En montée vers le Nord. Aérologie parfois \"déconcertante\" sur les 2 finales.  Tour de piste à 750 ft QNH à l'Est des installations (voir phot"
 },
 {
  "name": "Mosloy",
  "lat": 49.17454,
  "lon": 3.15446,
  "country": "FR",
  "source": "BASULM",
  "url": "https://basulm.ffplum.fr/carte-des-terrains.html",
  "access": "Aérodrome privé. Pas de visiteurs.",
  "city": "La Ferté-Millon",
  "manager": "Olivier FERTE",
  "last": "2024-02-23",
  "notes": "Tél. au gestionnaire pour connaitre état piste avant poser, sauf urgence ou force majeure/Pour QFU 11 se décaler 25 m au-delà seuil de piste, bien conserver l'a"
 },
 {
  "name": "Ployart",
  "lat": 49.50389,
  "lon": 3.73806,
  "country": "FR",
  "source": "BASULM",
  "url": "https://basulm.ffplum.fr/carte-des-terrains.html",
  "access": "Base ULM Accès privé",
  "city": "Ployart et Vaurseine",
  "manager": "",
  "last": "2023-04-14",
  "notes": ""
 },
 {
  "name": "Brochot",
  "lat": 48.97662,
  "lon": 3.3732,
  "country": "FR",
  "source": "BASULM",
  "url": "https://basulm.ffplum.fr/carte-des-terrains.html",
  "access": "Aérodrome Privé Ouvert aux ULM",
  "city": "Chezy-sur-Marne",
  "manager": "Odile PETIT",
  "last": "2025-04-14",
  "notes": "Tour de piste au Nord Eviter le survol du Village"
 },
 {
  "name": "Neuflieux",
  "lat": 49.61107,
  "lon": 3.14855,
  "country": "FR",
  "source": "BASULM",
  "url": "https://basulm.ffplum.fr/carte-des-terrains.html",
  "access": "Base ULM Autorisation OBLIGATOIRE",
  "city": "Neuflieux",
  "manager": "",
  "last": "2023-04-14",
  "notes": ""
 },
 {
  "name": "Corbeny",
  "lat": 49.45764,
  "lon": 3.85451,
  "country": "FR",
  "source": "BASULM",
  "url": "https://basulm.ffplum.fr/carte-des-terrains.html",
  "access": "Base ULM Autorisation OBLIGATOIRE",
  "city": "Corbeny",
  "manager": "",
  "last": "2023-04-14",
  "notes": "Strict PPR : plateforme privée. Il s'agit d'un terrain privatif, avec un accès strictement réservé (donc accès réservé aux personnes autorisées par le propriéta"
 },
 {
  "name": "Taillefontaine",
  "lat": 49.30868,
  "lon": 3.06682,
  "country": "FR",
  "source": "BASULM",
  "url": "https://basulm.ffplum.fr/carte-des-terrains.html",
  "access": "Base ULM Autorisation OBLIGATOIRE",
  "city": "Taillefontaine",
  "manager": "Mr Proffit",
  "last": "2023-04-14",
  "notes": ""
 },
 {
  "name": "La Flamengrie",
  "lat": 50.00025,
  "lon": 3.94482,
  "country": "FR",
  "source": "BASULM",
  "url": "https://basulm.ffplum.fr/carte-des-terrains.html",
  "access": "Base ULM Accès privé",
  "city": "La Flamengrie",
  "manager": "Lamendin Philippe",
  "last": "2023-04-14",
  "notes": "en 01 : arbres et haie en 19 : route et haie"
 },
 {
  "name": "Base Ulm du Val de l'Ailette",
  "lat": 49.56806,
  "lon": 3.22528,
  "country": "FR",
  "source": "BASULM",
  "url": "https://basulm.ffplum.fr/carte-des-terrains.html",
  "access": "Base ULM Accès privé",
  "city": "Bichancourt",
  "manager": "",
  "last": "2023-04-14",
  "notes": "Tour de Piste à 500 ft QFE côté hangar à l'Est. Verticale à 1.000 ft QFE. ATTENTION : seuil de piste 01 décalé à 105 m de la route.  Roulage sur la bande Taxywa"
 },
 {
  "name": "Le gros saule",
  "lat": 49.88378,
  "lon": 4.21352,
  "country": "FR",
  "source": "BASULM",
  "url": "https://basulm.ffplum.fr/carte-des-terrains.html",
  "access": "Base Paramoteurs Privée Ouverte aux ULM sur autorisation",
  "city": "Any-Martin-Rieux",
  "manager": "SP-ULM",
  "last": "2025-04-05",
  "notes": ""
 },
 {
  "name": "Veauce",
  "lat": 46.17333,
  "lon": 3.05889,
  "country": "FR",
  "source": "BASULM",
  "url": "https://basulm.ffplum.fr/carte-des-terrains.html",
  "access": "Base ULM Autorisation OBLIGATOIRE",
  "city": "Veauce",
  "manager": "lagoutte Nicole",
  "last": "2023-04-14",
  "notes": "Plateforme privée."
 },
 {
  "name": "Verneuil en Bourbonnais",
  "lat": 46.3599,
  "lon": 3.26833,
  "country": "FR",
  "source": "BASULM",
  "url": "https://basulm.ffplum.fr/carte-des-terrains.html",
  "access": "Base ULM Autorisation OBLIGATOIRE",
  "city": "Verneuil-en-Boubonnais",
  "manager": "",
  "last": "2026-05-27",
  "notes": ""
 },
 {
  "name": "Banelle",
  "lat": 46.12521,
  "lon": 3.2869,
  "country": "FR",
  "source": "BASULM",
  "url": "https://basulm.ffplum.fr/carte-des-terrains.html",
  "access": "Base ULM Accès privé",
  "city": "Escurolles",
  "manager": "Lomet",
  "last": "2023-04-14",
  "notes": "Seuil décalé de 50m cote nord car route proximité entrée de piste. Circuit de piste recommandé à l'est ."
 },
 {
  "name": "La Tuilière",
  "lat": 46.53269,
  "lon": 3.11837,
  "country": "FR",
  "source": "BASULM",
  "url": "https://basulm.ffplum.fr/carte-des-terrains.html",
  "access": "Aérodrome Privé Avec Restrictions Autorisation OBLIGATOIRE",
  "city": "Autry-Issards",
  "manager": "Olivier Hallé",
  "last": "2026-04-20",
  "notes": "Atterrissage obligatoire en 20 face au bois, à cause du léger dénivelé et de la hauteur des arbres.  Attention au fossé le long de la piste côté Est.  Piste sit"
 },
 {
  "name": "Mounier Haut",
  "lat": 46.02721,
  "lon": 3.66857,
  "country": "FR",
  "source": "BASULM",
  "url": "https://basulm.ffplum.fr/carte-des-terrains.html",
  "access": "Base ULM Accès privé",
  "city": "Ferrières-sur-Sichon",
  "manager": "",
  "last": "2023-04-19",
  "notes": "TdP à l'Est, côté éoliennes.   AÉROLOGIE SOUVENT TRÈS MERDIQUE ! Respect du village : ils nous aiment bien ! Altisurface, pente 15% en 2ème partie de piste (mon"
 },
 {
  "name": "La Bouble",
  "lat": 46.21867,
  "lon": 2.95236,
  "country": "FR",
  "source": "BASULM",
  "url": "https://basulm.ffplum.fr/carte-des-terrains.html",
  "access": "Base ULM Privé Avec Restrictions Autorisation OBLIGATOIRE",
  "city": "Echassières",
  "manager": "Jean-Marc",
  "last": "2025-08-20",
  "notes": "Radio en Français Tour de piste à 2100 ft  atterrissage en 19 cause légère montée. Il est recommandé de faire son point d'aboutissement aux deuxièmes balises so"
 },
 {
  "name": "Montord",
  "lat": 46.29377,
  "lon": 3.24849,
  "country": "FR",
  "source": "BASULM",
  "url": "https://basulm.ffplum.fr/carte-des-terrains.html",
  "access": "Base ULM Accès privé",
  "city": "Montord",
  "manager": "Flychallenger",
  "last": "2026-05-28",
  "notes": "Merci d Éviter le survol à basse altitude des villages environnants…"
 },
 {
  "name": "La Maison  Neuve",
  "lat": 46.38008,
  "lon": 3.65082,
  "country": "FR",
  "source": "BASULM",
  "url": "https://basulm.ffplum.fr/carte-des-terrains.html",
  "access": "Base ULM. Usage strictement privé (pas de visiteurs).",
  "city": "Châtelperron",
  "manager": "Guillaume CHEVALLIER-CHANTEPIE",
  "last": "2024-10-04",
  "notes": "Atterrissage uniquement en 34."
 },
 {
  "name": "Clamensane les 3 Fontaines",
  "lat": 44.31432,
  "lon": 6.07153,
  "country": "FR",
  "source": "BASULM",
  "url": "https://basulm.ffplum.fr/carte-des-terrains.html",
  "access": "!! Type de terrain mal défini !!",
  "city": "Clamensane",
  "manager": "",
  "last": "2026-05-20",
  "notes": "voir consignes sur les Fiches AFPM :   https://www.afpm.fr"
 },
 {
  "name": "Thorame Haute Les Serres",
  "lat": 44.12306,
  "lon": 6.56,
  "country": "FR",
  "source": "BASULM",
  "url": "https://basulm.ffplum.fr/carte-des-terrains.html",
  "access": "AltiSurface en service",
  "city": "Thorame-Haute",
  "manager": "",
  "last": "2020-09-16",
  "notes": ""
 },
 {
  "name": "Sainte Croix sur Verdon",
  "lat": 43.77868,
  "lon": 6.15964,
  "country": "FR",
  "source": "BASULM",
  "url": "https://basulm.ffplum.fr/carte-des-terrains.html",
  "access": "Aérodrome Privé Avec Restrictions Autorisation OBLIGATOIRE",
  "city": "Sainte-Croix-sur-Verdon",
  "manager": "Mr André Martin Président de l'Aéro-Club du Lys",
  "last": "2022-07-24",
  "notes": "Circuits obligatoirement à l'Est -- ne jamais survoler le petit bois des grandes antennes RMC -- 4 lignes électriques à 500m au N/O -- seuils décalés cause clôt"
 },
 {
  "name": "Seyne les Alpes",
  "lat": 44.34194,
  "lon": 6.37278,
  "country": "FR",
  "source": "BASULM",
  "url": "https://basulm.ffplum.fr/carte-des-terrains.html",
  "access": "Aérodrome Privé Ouvert aux ULM",
  "city": "Seyne-les-Alpes",
  "manager": "SAGA (SEYNE LES ALPES GLIDERS ASSOCIATION )",
  "last": "2025-11-26",
  "notes": "Pente de 30m sur 1000m montant en 13 décollage en 13 interdit  décollage en 31 exclusif pas de touche en go en 13 pas de survol du village  Pas de passage en 13"
 },
 {
  "name": "La Motte du Caire",
  "lat": 44.32286,
  "lon": 6.03129,
  "country": "FR",
  "source": "BASULM",
  "url": "https://basulm.ffplum.fr/carte-des-terrains.html",
  "access": "Vélisurface",
  "city": "La Motte du Caire",
  "manager": "CVVMC",
  "last": "2026-02-13",
  "notes": "Terrain privé, exclusivement réservé au vol à voile. Utilisation du treuil, altitude de largage : ~1200m QNH Verticale et passage en dehors des horaires d'activ"
 },
 {
  "name": "Thorame Haute Les Serres 2",
  "lat": 44.115,
  "lon": 6.53861,
  "country": "FR",
  "source": "BASULM",
  "url": "https://basulm.ffplum.fr/carte-des-terrains.html",
  "access": "AltiSurface en service",
  "city": "Thorame-Haute",
  "manager": "",
  "last": "2025-12-18",
  "notes": ""
 },
 {
  "name": "Oraison",
  "lat": 43.92188,
  "lon": 5.90414,
  "country": "FR",
  "source": "BASULM",
  "url": "https://basulm.ffplum.fr/carte-des-terrains.html",
  "access": "Base ULM Privé Avec Restrictions Autorisation OBLIGATOIRE",
  "city": "Oraison",
  "manager": "Delta Provence:",
  "last": "2025-05-24",
  "notes": "Piste courte, délicate, vent 5kt max Verticale terrain 2000ft QNH. Nuisances sonores ! Vent arrière côté ouest. Atterrissage en 01 - décollage obligatoire en 19"
 },
 {
  "name": "Ségriès",
  "lat": 43.86778,
  "lon": 6.17826,
  "country": "FR",
  "source": "BASULM",
  "url": "https://basulm.ffplum.fr/carte-des-terrains.html",
  "access": "Base ULM accès libre Utilisation EPISODIQUE",
  "city": "Moustiers-Sainte-Marie",
  "manager": "",
  "last": "2023-04-14",
  "notes": "Attention, piste dans le TdP de Puimoisson !! ..."
 },
 {
  "name": "Cruis Mas Des Grailles",
  "lat": 44.06028,
  "lon": 5.85301,
  "country": "FR",
  "source": "BASULM",
  "url": "https://basulm.ffplum.fr/carte-des-terrains.html",
  "access": "Base ULM Accès privé",
  "city": "Cruis",
  "manager": "",
  "last": "2025-11-03",
  "notes": "Altisurface réservée aux ULM. Atterrissage obligatoire en 35, la piste a une pente de 10 %. Forts rabattants en été. Le point d'aboutissement en 35 est au nivea"
 },
 {
  "name": "Banon",
  "lat": 44.07228,
  "lon": 5.63922,
  "country": "FR",
  "source": "BASULM",
  "url": "https://basulm.ffplum.fr/carte-des-terrains.html",
  "access": "AltiSurface en service",
  "city": "Retordiers",
  "manager": "Mr Pierre Brémond",
  "last": "2026-06-15",
  "notes": "TdP main gauche, atterrissage face au nord, décollage face au sud, aérologie délicate. Ne pas utiliser la piste est-ouest cause nuisances et état de surface. Ax"
 },
 {
  "name": "Thorame-Haute Chamatte",
  "lat": 44.13972,
  "lon": 6.54833,
  "country": "FR",
  "source": "BASULM",
  "url": "https://basulm.ffplum.fr/carte-des-terrains.html",
  "access": "AltiSurface en service",
  "city": "Thorame-Haute",
  "manager": "",
  "last": "2025-11-03",
  "notes": ""
 },
 {
  "name": "La Mure Argens",
  "lat": 43.98308,
  "lon": 6.53173,
  "country": "FR",
  "source": "BASULM",
  "url": "https://basulm.ffplum.fr/carte-des-terrains.html",
  "access": "Base ULM Privé Avec Restrictions Autorisation OBLIGATOIRE",
  "city": "La Mure Argens",
  "manager": "",
  "last": "2025-12-18",
  "notes": ""
 },
 {
  "name": "Glacier Lombard",
  "lat": 45.10833,
  "lon": 6.32222,
  "country": "FR",
  "source": "BASULM",
  "url": "https://basulm.ffplum.fr/carte-des-terrains.html",
  "access": "AltiSurface en service",
  "city": "La Grave",
  "manager": "Mairie de La Grave",
  "last": "2025-11-03",
  "notes": "Reco E en W. Approche verticale Torrent de Maurian puis N Aiguille de Goléon. Finale cap 310. Remise des gaz impossible en courte finale."
 },
 {
  "name": "Grand Terrus",
  "lat": 44.42278,
  "lon": 5.64417,
  "country": "FR",
  "source": "BASULM",
  "url": "https://basulm.ffplum.fr/carte-des-terrains.html",
  "access": "AltiSurface en service",
  "city": "Monclus",
  "manager": "",
  "last": "2025-11-03",
  "notes": "Piste de montagne : pente 15 % atterrissage en 02  décollage en 20.  Seuil de piste 02 à 2700'.  Arbres et ligne électrique en courte finale 02.  Tour de piste "
 },
 {
  "name": "Saint Etienne en Devoluy",
  "lat": 44.66803,
  "lon": 5.90482,
  "country": "FR",
  "source": "BASULM",
  "url": "https://basulm.ffplum.fr/carte-des-terrains.html",
  "access": "AltiSurface en service",
  "city": "Saint-Etienne-en-Dévoluy",
  "manager": "",
  "last": "2020-09-16",
  "notes": "Tour de piste 21 à main droite.  Piste fort caillouteuse : dégâts possibles à l'aéronef (volets, hélice, profondeur) Pente de 10 à 17%, bas de la pente 6037', s"
 },
 {
  "name": "Crots",
  "lat": 44.53657,
  "lon": 6.43501,
  "country": "FR",
  "source": "BASULM",
  "url": "https://basulm.ffplum.fr/carte-des-terrains.html",
  "access": "Base ULM Réglementé Avec Restrictions Autorisation OBLIGATOIRE",
  "city": "Crots",
  "manager": "AUPAC",
  "last": "2024-10-17",
  "notes": "Tour de piste des ULM 1000 ft"
 },
 {
  "name": "Colombe d'Eyguians",
  "lat": 44.36501,
  "lon": 5.78672,
  "country": "FR",
  "source": "BASULM",
  "url": "https://basulm.ffplum.fr/carte-des-terrains.html",
  "access": "AltiSurface en service",
  "city": "Eyguians",
  "manager": "",
  "last": "2025-12-18",
  "notes": "Pente 10% en montée sur 04. Atterrissage en 04 Décollage en 22"
 },
 {
  "name": "Les Eyssagnes",
  "lat": 44.66086,
  "lon": 6.21236,
  "country": "FR",
  "source": "BASULM",
  "url": "https://basulm.ffplum.fr/carte-des-terrains.html",
  "access": "AltiSurface Restreint Ouvert aux ULM Autorisation OBLIGATOIRE",
  "city": "Saint-Jean-Saint-Nicolas",
  "manager": "VENEREUX Thierry",
  "last": "2025-12-18",
  "notes": "Pas de survol des hameaux et habitations. LDG 15-PTU main droite. TKF33 dégager par la gauche au dessus de la rivière une fois passé la cime des arbres en bout "
 },
 {
  "name": "Isola 2000",
  "lat": 44.17339,
  "lon": 7.1627,
  "country": "FR",
  "source": "BASULM",
  "url": "https://basulm.ffplum.fr/carte-des-terrains.html",
  "access": "AltiSurface en service",
  "city": "Saint-Sauveur-de-Tinée",
  "manager": "aéroclub Isola",
  "last": "2025-12-18",
  "notes": "Tours de piste main droite, en restant au dessus de la vallée, sans aller sur la crête au nord (frontière), la branche finale est donc courte, atterrissage en 1"
 },
 {
  "name": "Cipières Alpes d'Azur ULM",
  "lat": 43.7791,
  "lon": 6.86297,
  "country": "FR",
  "source": "BASULM",
  "url": "https://basulm.ffplum.fr/carte-des-terrains.html",
  "access": "!! Type de terrain mal défini !!",
  "city": "Cipieres",
  "manager": "Aéroclub Alpes d'Azur ULM",
  "last": "2026-05-20",
  "notes": "Atterrissage 09, décollage 27."
 },
 {
  "name": "Valberg",
  "lat": 44.10694,
  "lon": 6.93944,
  "country": "FR",
  "source": "BASULM",
  "url": "https://basulm.ffplum.fr/carte-des-terrains.html",
  "access": "AltiSurface en service",
  "city": "Péone",
  "manager": "",
  "last": "2025-11-03",
  "notes": "Seuil décalé car piste rallongée mais l'herbe pousse...  Arrivée par les gorges de Daluis.   Ne pas survoler la station de Valberg ne pas survoler la bergerie a"
 },
 {
  "name": "Théoule sur mer hydro",
  "lat": 43.47836,
  "lon": 6.94054,
  "country": "FR",
  "source": "BASULM",
  "url": "https://basulm.ffplum.fr/carte-des-terrains.html",
  "access": "Base ULM ouverte tous types",
  "city": "Théoule-sur-mer",
  "manager": "",
  "last": "2023-04-18",
  "notes": ""
 },
 {
  "name": "Notre-Dame-des-Neiges-Abbaye",
  "lat": 44.60067,
  "lon": 3.92675,
  "country": "FR",
  "source": "BASULM",
  "url": "https://basulm.ffplum.fr/carte-des-terrains.html",
  "access": "AltiSurface en service",
  "city": "Saint-Laurent-les-Bains",
  "manager": "AFPM",
  "last": "2025-12-18",
  "notes": "Pente : 17%. Tdp main gauche. Léger Devers droit en haut de piste à l’atterrissage"
 },
 {
  "name": "Le Bez",
  "lat": 44.63372,
  "lon": 4.04609,
  "country": "FR",
  "source": "BASULM",
  "url": "https://basulm.ffplum.fr/carte-des-terrains.html",
  "access": "AltiSurface en service",
  "city": "Borne",
  "manager": "AFPM",
  "last": "2025-12-18",
  "notes": "Pente 18% régulier. Sol naturel non aménagé. Atterrissage 23 : Main gauche. Décollage 05 : Dégager main droite. Merci de ne pas survoler l'auberge."
 },
 {
  "name": "Deyras Saint Victor",
  "lat": 45.09327,
  "lon": 4.70686,
  "country": "FR",
  "source": "BASULM",
  "url": "https://basulm.ffplum.fr/carte-des-terrains.html",
  "access": "Base ULM Accès limité Autorisation OBLIGATOIRE",
  "city": "Saint-Victor",
  "manager": "Aéroclub AIr des Choix",
  "last": "2026-04-20",
  "notes": "Respect impératif: VENT ARRIÈRE à l'EST; NE PAS S'APPROCHER NI SURVOLER LE VILLAGE AU SUD NE PAS DEPASSER ROUTE À L'OUEST NE PAS SURVOLER ZONES ENTOURÉES SUR CA"
 },
 {
  "name": "Creysseilles les croix",
  "lat": 44.76504,
  "lon": 4.5361,
  "country": "FR",
  "source": "BASULM",
  "url": "https://basulm.ffplum.fr/carte-des-terrains.html",
  "access": "Base ULM Accès limité Autorisation OBLIGATOIRE",
  "city": "Creysseilles",
  "manager": "Denis Gontier",
  "last": "2023-04-14",
  "notes": "Tour de piste nord, main droite piste 29. Voisinage sensible. Survol interdit des habitations situées au sud de la piste ainsi que du village de Creysseilles au"
 },
 {
  "name": "Champis 07",
  "lat": 44.94113,
  "lon": 4.76184,
  "country": "FR",
  "source": "BASULM",
  "url": "https://basulm.ffplum.fr/carte-des-terrains.html",
  "access": "Base Paramoteurs accès limité Autorisation OBLIGATOIRE",
  "city": "Champis",
  "manager": "Club ULM les Champivolants",
  "last": "2022-08-11",
  "notes": "Prise d'altitude verticale terrain. Pas de survol des habitations à proximité du site. La piste est omnidirectionnelle en son centre d'un diamètre de 50 m. Sur "
 },
 {
  "name": "Avaux - Les Bourdons",
  "lat": 49.48056,
  "lon": 4.075,
  "country": "FR",
  "source": "BASULM",
  "url": "https://basulm.ffplum.fr/carte-des-terrains.html",
  "access": "Base ULM Autorisation OBLIGATOIRE",
  "city": "Asfeld",
  "manager": "Gacoin Jean",
  "last": "2023-04-14",
  "notes": "PPR: demande préalable   Tour de piste par le Nord  Obstacle: antenne rouge et blanche de mesures des vents, au Nord Ouest du QFU 11."
 },
 {
  "name": "Les potes adon'fe 08",
  "lat": 49.63505,
  "lon": 4.28469,
  "country": "FR",
  "source": "BASULM",
  "url": "https://basulm.ffplum.fr/carte-des-terrains.html",
  "access": "Base ULM ouverte tous types",
  "city": "Adon",
  "manager": "Association Les potes Adon'fe 08",
  "last": "2025-08-27",
  "notes": "Attention en longue finale de la 14, fils électrique sur votre gauche et un dénivelé à 300 m au seuil de la piste de 125 m. En 32, arbres du haut de la cime au "
 },
 {
  "name": "Aérodrome de Chaudion",
  "lat": 49.58382,
  "lon": 4.20875,
  "country": "FR",
  "source": "BASULM",
  "url": "https://basulm.ffplum.fr/carte-des-terrains.html",
  "access": "Aérodrome Privé Avec Restrictions Autorisation OBLIGATOIRE",
  "city": "Saint Fergeux - Hameau Chaudion",
  "manager": "",
  "last": "2026-05-07",
  "notes": "Eviter le survol des habitations avoisinantes Attention obstacles : - Ligne électrique à 230 m du seuil de piste 07 - Parc éolien dans l'axe à 2800 m du seuil d"
 },
 {
  "name": "Aleu",
  "lat": 42.90035,
  "lon": 1.27527,
  "country": "FR",
  "source": "BASULM",
  "url": "https://basulm.ffplum.fr/carte-des-terrains.html",
  "access": "AltiSurface en service",
  "city": "Aleu",
  "manager": "Association des Pilotes Pyrénéens de Montagne",
  "last": "2025-12-18",
  "notes": "Piste concave de 11 à 20%, atterrissage en 10, décollage en 28, tour de piste main gauche. Utilisable en toutes saisons (sauf neige). Attention : possibilité d'"
 },
 {
  "name": "Artigat - Martin Gu'air",
  "lat": 43.14678,
  "lon": 1.43996,
  "country": "FR",
  "source": "BASULM",
  "url": "https://basulm.ffplum.fr/carte-des-terrains.html",
  "access": "Base ULM Autorisation OBLIGATOIRE",
  "city": "Artigat",
  "manager": "Philippe DE ROALDES (Président)",
  "last": "2023-04-14",
  "notes": "Seuils de pistes bien dégagés.   Évitez de survoler le pâté de maison à l'ouest."
 },
 {
  "name": "La Plagne Bouirex",
  "lat": 42.86667,
  "lon": 1.13833,
  "country": "FR",
  "source": "BASULM",
  "url": "https://basulm.ffplum.fr/carte-des-terrains.html",
  "access": "AltiSurface en service",
  "city": "Sentenac-d'Oust",
  "manager": "APPM Association Pyrénéenne des Pilotes de Montagne",
  "last": "2025-11-03",
  "notes": "Piste peu en pente, mais dévers sensible à droite à l'atterrissage.  Trous de sangliers et taupinières. Présence d'une bosse 30 mètres après l'entrée de piste, "
 },
 {
  "name": "Villeneuve du Latou",
  "lat": 43.20441,
  "lon": 1.41915,
  "country": "FR",
  "source": "BASULM",
  "url": "https://basulm.ffplum.fr/carte-des-terrains.html",
  "access": "Aérodrome Privé Ouvert aux ULM",
  "city": "Villeneuve-du-Latou",
  "manager": "",
  "last": "2016-02-16",
  "notes": "Aérodrome privé réservé à l'utilisation du propriétaire de sa famille et de ses invités."
 },
 {
  "name": "Ferme de Bon repos - Régat",
  "lat": 42.98391,
  "lon": 1.89355,
  "country": "FR",
  "source": "BASULM",
  "url": "https://basulm.ffplum.fr/carte-des-terrains.html",
  "access": "Base ULM ouverte tous types",
  "city": "Régat",
  "manager": "Bénédict De Bruyne et Laurent MILLER",
  "last": "2023-04-14",
  "notes": "Nous n'avons pas de fréquence Sol. En vol local notre fréquence est 123.450 Mhz. Par vent faible, Décollage,  privilégier  piste 10 en légère descente. et 28 po"
 },
 {
  "name": "Sarrat",
  "lat": 43.2086,
  "lon": 1.70868,
  "country": "FR",
  "source": "BASULM",
  "url": "https://basulm.ffplum.fr/carte-des-terrains.html",
  "access": "Base ULM Autorisation OBLIGATOIRE",
  "city": "Mazères",
  "manager": "Dejean Gaston",
  "last": "2023-04-14",
  "notes": "Par le sud  Ligne PTT à 40 mètres seuil de piste EST  Attention : le terrain est très près de la D59, raccourcir la finale en 11."
 },
 {
  "name": "Ustou",
  "lat": 42.78139,
  "lon": 1.22583,
  "country": "FR",
  "source": "BASULM",
  "url": "https://basulm.ffplum.fr/carte-des-terrains.html",
  "access": "AltiSurface en service",
  "city": "Ustou",
  "manager": "",
  "last": "2020-09-16",
  "notes": ""
 },
 {
  "name": "Ercé",
  "lat": 42.85111,
  "lon": 1.29722,
  "country": "FR",
  "source": "BASULM",
  "url": "https://basulm.ffplum.fr/carte-des-terrains.html",
  "access": "Base ULM ouverte tous types",
  "city": "Ercé",
  "manager": "Privé",
  "last": "2025-12-18",
  "notes": "Piste de type altisurface. Après passage parallèle à la piste pour vérifier la présence éventuelle d'animaux, suivre l'axe de la vallée pour s'intégrer en longu"
 },
 {
  "name": "Montardoise",
  "lat": 48.46803,
  "lon": 4.19776,
  "country": "FR",
  "source": "BASULM",
  "url": "https://basulm.ffplum.fr/carte-des-terrains.html",
  "access": "Aérodrome Privé Ouvert aux ULM",
  "city": "Montsuzain",
  "manager": "",
  "last": "2021-05-27",
  "notes": "Tour de piste au Sud  avions 700 ft  ULM 500 ft  Le seuil 24 est préférentiel (piste en pente)."
 },
 {
  "name": "Ville sur Arce",
  "lat": 48.08821,
  "lon": 4.43592,
  "country": "FR",
  "source": "BASULM",
  "url": "https://basulm.ffplum.fr/carte-des-terrains.html",
  "access": "Aérodrome Privé Ouvert aux ULM",
  "city": "Celles-sur-Ource",
  "manager": "",
  "last": "2019-12-06",
  "notes": ""
 },
 {
  "name": "Viapres le petit",
  "lat": 48.56908,
  "lon": 4.03265,
  "country": "FR",
  "source": "BASULM",
  "url": "https://basulm.ffplum.fr/carte-des-terrains.html",
  "access": "Base ULM Autorisation OBLIGATOIRE",
  "city": "Plancy l'Abbaye",
  "manager": "",
  "last": "2023-04-14",
  "notes": ""
 },
 {
  "name": "Amance",
  "lat": 48.35083,
  "lon": 4.505,
  "country": "FR",
  "source": "BASULM",
  "url": "https://basulm.ffplum.fr/carte-des-terrains.html",
  "access": "HydroSurface Restreinte Autorisation OBLIGATOIRE",
  "city": "Dienville",
  "manager": "Aube-ULM Ecole des Lacs",
  "last": "2021-05-31",
  "notes": "Eviter survol barrage et villages voisins. L'arrêté précise :  Bande d'envol : forme rectangulaire de 150 m par 40 m orientée sensiblement 050°/230° inscrite da"
 },
 {
  "name": "Fontarce",
  "lat": 48.12982,
  "lon": 4.5993,
  "country": "FR",
  "source": "BASULM",
  "url": "https://basulm.ffplum.fr/carte-des-terrains.html",
  "access": "Base ULM Accès privé",
  "city": "Vitry-le-Croisé",
  "manager": "",
  "last": "2023-04-14",
  "notes": ""
 },
 {
  "name": "Vaujurennes",
  "lat": 48.18996,
  "lon": 3.70348,
  "country": "FR",
  "source": "BASULM",
  "url": "https://basulm.ffplum.fr/carte-des-terrains.html",
  "access": "Base ULM Autorisation OBLIGATOIRE",
  "city": "Paisy-Cosdon",
  "manager": "Frédéric Riché",
  "last": "2025-06-25",
  "notes": "Bois à 400 m du seuil de la 30. Ligne électrique à 380 m du seuil de la 12. Pente de 2% sur le premier tiers de la 30."
 },
 {
  "name": "Baraigne",
  "lat": 43.32343,
  "lon": 1.83364,
  "country": "FR",
  "source": "BASULM",
  "url": "https://basulm.ffplum.fr/carte-des-terrains.html",
  "access": "Base ULM Accès privé",
  "city": "Baraigne",
  "manager": "Aéroclub  \tulmiste Lauragais Mediterraneen Ganguise",
  "last": "2023-04-14",
  "notes": "Tour de piste au sud, éviter le survol des villages de Baraigne et Molleville. Vent fréquent. Fortes turbulences par vent d'autan piste 11 Ne pas utiliser en l'"
 },
 {
  "name": "Nébias",
  "lat": 42.89175,
  "lon": 2.12372,
  "country": "FR",
  "source": "BASULM",
  "url": "https://basulm.ffplum.fr/carte-des-terrains.html",
  "access": "Base ULM Autorisation OBLIGATOIRE",
  "city": "Nébias",
  "manager": "Bostvironnois Michel",
  "last": "2023-04-14",
  "notes": "Tour de piste au sud des installations; non survol du village.  Aérodrome à usage restreint PUIVERT (120.005) à proximité."
 },
 {
  "name": "Fleury d'Aude",
  "lat": 43.21356,
  "lon": 3.12996,
  "country": "FR",
  "source": "BASULM",
  "url": "https://basulm.ffplum.fr/carte-des-terrains.html",
  "access": "Base ULM Accès privé",
  "city": "Fleury-d'Aude",
  "manager": "",
  "last": "2025-10-21",
  "notes": "Eviter le survol à basse altitude des domaines et de la zone industrielle de Fleury. La Base est implantée au sud de la TMA 7 de Montpellier (zone D 1500/FL 115"
 },
 {
  "name": "Limoux",
  "lat": 43.05709,
  "lon": 2.22643,
  "country": "FR",
  "source": "BASULM",
  "url": "https://basulm.ffplum.fr/carte-des-terrains.html",
  "access": "Base ULM Autorisation OBLIGATOIRE",
  "city": "Limoux",
  "manager": "Ville de Limoux",
  "last": "2023-04-14",
  "notes": "Tours de piste côté Est. Ne pas survoler la ville.  Attention fortes turbulences par vent d'ouest."
 },
 {
  "name": "Ulm Saint Couat",
  "lat": 43.21118,
  "lon": 2.64646,
  "country": "FR",
  "source": "BASULM",
  "url": "https://basulm.ffplum.fr/carte-des-terrains.html",
  "access": "Base ULM Accès privé",
  "city": "Saint-Couat-d'Aude",
  "manager": "Ferchal Jean-Pierre",
  "last": "2023-04-14",
  "notes": "Tour de piste 500ft AAL (800 ft QNH)au Nord Pas de survol d'agglomérations ou d'habitation isolée.  Reconnaissance verticale 1000 ft AAL (1300 ft QNH) obligatoi"
 },
 {
  "name": "Beaugaillard",
  "lat": 43.17861,
  "lon": 1.95167,
  "country": "FR",
  "source": "BASULM",
  "url": "https://basulm.ffplum.fr/carte-des-terrains.html",
  "access": "Aérodrome Privé Ouvert aux ULM",
  "city": "Saint-Julien-de-Briola",
  "manager": "Propriétaire",
  "last": "2022-04-10",
  "notes": "Circuit à 700 ft sol.  Ce terrain est situé sous la R46 N1. Inutilisable pendant les heures d'activité de la zone. Éviter le survol des zones habitées cerclées "
 },
 {
  "name": "Argeliers",
  "lat": 43.30833,
  "lon": 2.89333,
  "country": "FR",
  "source": "BASULM",
  "url": "https://basulm.ffplum.fr/carte-des-terrains.html",
  "access": "Base ULM Privé Avec Restrictions Autorisation OBLIGATOIRE",
  "city": "Argeliers",
  "manager": "Les Ailes Argeliésoises",
  "last": "2025-01-18",
  "notes": "Arrivée, départ et tour de piste uniquement par le sud des installations. Procédure d'atterrissage spécifique. Briefing et test en vol par le responsable sécuri"
 },
 {
  "name": "Le Reuilh",
  "lat": 43.19266,
  "lon": 1.97876,
  "country": "FR",
  "source": "BASULM",
  "url": "https://basulm.ffplum.fr/carte-des-terrains.html",
  "access": "Base ULM Accès privé",
  "city": "La Cassaigne",
  "manager": "PROPRIETAIRE",
  "last": "2023-04-21",
  "notes": "TDP à 1500FT SURVOL DES HABITATIONS INTERDIT Auto-info sur 123.5 (proximité AD Beaugaillard)  Route à faible trafic à 50m EST seuil 31 VIGILANCE Seuil décalé pi"
 },
 {
  "name": "Puichéric",
  "lat": 43.22644,
  "lon": 2.58745,
  "country": "FR",
  "source": "BASULM",
  "url": "https://basulm.ffplum.fr/carte-des-terrains.html",
  "access": "Aérodrome Privé Ouvert aux ULM",
  "city": "Puicheric-Blomac",
  "manager": "Prive",
  "last": "2025-11-12",
  "notes": "Tour de piste par le nord Survol de la pisciculture interdite Manche entre de piste"
 },
 {
  "name": "La Brousse Golinhac",
  "lat": 44.581,
  "lon": 2.59136,
  "country": "FR",
  "source": "BASULM",
  "url": "https://basulm.ffplum.fr/carte-des-terrains.html",
  "access": "Aérodrome fermé.",
  "city": "Golinhac",
  "manager": "Benezet Michel",
  "last": "2022-05-25",
  "notes": "La piste présentant un dénivelé d'environ 5%, par vent nul ou faible l'atterrissage se fera en 31.  la piste est en bordure Est (et non Ouest) du chemin."
 },
 {
  "name": "Graissac le Faula",
  "lat": 44.77083,
  "lon": 2.78856,
  "country": "FR",
  "source": "BASULM",
  "url": "https://basulm.ffplum.fr/carte-des-terrains.html",
  "access": "Aérodrome privé fermé temporairement",
  "city": "Ste-Geneviève-sur-Argence",
  "manager": "",
  "last": "2025-02-21",
  "notes": "Aérodrome privé de type altisurface. Att. 13 - Déco. 31 - TDP main Gauche  Pas d'atterrissage si pas de manche à air (piste non praticable)  Attention : seuil 1"
 },
 {
  "name": "Thérondels Douzalbats",
  "lat": 44.893,
  "lon": 2.71815,
  "country": "FR",
  "source": "BASULM",
  "url": "https://basulm.ffplum.fr/carte-des-terrains.html",
  "access": "Aérodrome Privé Ouvert aux ULM",
  "city": "Mur-de-Barrez",
  "manager": "",
  "last": "2024-04-22",
  "notes": "Tour de piste de préférence au sud face au hangar atterrissage 08 main droite décollage en 26"
 },
 {
  "name": "Villefranche de Panat",
  "lat": 44.09926,
  "lon": 2.69518,
  "country": "FR",
  "source": "BASULM",
  "url": "https://basulm.ffplum.fr/carte-des-terrains.html",
  "access": "HydroSurface Restreinte Autorisation OBLIGATOIRE",
  "city": "Villefranche-de-Panat",
  "manager": "Paul Dellac",
  "last": "2021-05-27",
  "notes": "Eviter survol habitations et camping"
 },
 {
  "name": "Ste Croix",
  "lat": 44.41389,
  "lon": 1.94333,
  "country": "FR",
  "source": "BASULM",
  "url": "https://basulm.ffplum.fr/carte-des-terrains.html",
  "access": "Base ULM Autorisation OBLIGATOIRE",
  "city": "Sainte Croix",
  "manager": "",
  "last": "2023-04-14",
  "notes": ""
 },
 {
  "name": "Sarrans Cantoin",
  "lat": 44.82611,
  "lon": 2.84321,
  "country": "FR",
  "source": "BASULM",
  "url": "https://basulm.ffplum.fr/carte-des-terrains.html",
  "access": "Base ULM accès libre Utilisation EPISODIQUE",
  "city": "Cantoin-Aubrac",
  "manager": "BASC - Olivier LONGO BEDOS",
  "last": "2025-02-21",
  "notes": "Légérement montante en 26. Merci de bien respecter les seuils de pistes décalés. Merci de faire le tour de piste par le nord   Attention à l'activation de la LF"
 },
 {
  "name": "Bozouls",
  "lat": 44.47811,
  "lon": 2.74728,
  "country": "FR",
  "source": "BASULM",
  "url": "https://basulm.ffplum.fr/carte-des-terrains.html",
  "access": "Base ULM Autorisation OBLIGATOIRE",
  "city": "Bozouls",
  "manager": "GAPULM",
  "last": "2024-08-11",
  "notes": "Tour de piste au nord entre 600 et 800Ft/sol  éviter de survoler les villages à basse altitude. Roulage sur les pistes et taxiway uniquement (sinon risque de cr"
 },
 {
  "name": "Saint Félix de Lunel",
  "lat": 44.56256,
  "lon": 2.54201,
  "country": "FR",
  "source": "BASULM",
  "url": "https://basulm.ffplum.fr/carte-des-terrains.html",
  "access": "Base ULM Autorisation OBLIGATOIRE",
  "city": "Saint-Félix-de-Lunel",
  "manager": "",
  "last": "2023-04-14",
  "notes": "Contact téléphonique OBLIGATOIRE Atterrissage uniquement en 18 Expérience montagne indispensable Tour de piste à l'Est."
 },
 {
  "name": "Barrage de Pareloup",
  "lat": 44.20675,
  "lon": 2.74409,
  "country": "FR",
  "source": "BASULM",
  "url": "https://basulm.ffplum.fr/carte-des-terrains.html",
  "access": "HydroSurface Restreinte Autorisation OBLIGATOIRE",
  "city": "Salles-Curan",
  "manager": "Roman Composites",
  "last": "2024-02-11",
  "notes": "Eviter le survol à basse hauteur des plages, campings, ports et villages situés autour du lac.  Accès réservé aux seuls pilotes autorisés par le gestionnaire"
 },
 {
  "name": "Lac de Maury",
  "lat": 44.66033,
  "lon": 2.68423,
  "country": "FR",
  "source": "BASULM",
  "url": "https://basulm.ffplum.fr/carte-des-terrains.html",
  "access": "HydroSurface Restreinte Autorisation OBLIGATOIRE",
  "city": "Montpeyroux",
  "manager": "Association Française d'Hydraviation",
  "last": "2023-03-07",
  "notes": "Fort relief et ligne à haute tension à l'Est : Amerrissage en 09 et décollage en 27. Tour de piste en évitant le survol du lieu-dit la Capelle."
 },
 {
  "name": "Sarrans",
  "lat": 44.84792,
  "lon": 2.7506,
  "country": "FR",
  "source": "BASULM",
  "url": "https://basulm.ffplum.fr/carte-des-terrains.html",
  "access": "HydroSurface Restreinte Autorisation OBLIGATOIRE",
  "city": "Argences-en-Aubrac",
  "manager": "Association Française d'Hydraviation",
  "last": "2023-09-02",
  "notes": "Site particulièrement sensible aux nuisances, éviter le survol des zones habitées et des campings."
 },
 {
  "name": "Conques 12",
  "lat": 44.60827,
  "lon": 2.42807,
  "country": "FR",
  "source": "BASULM",
  "url": "https://basulm.ffplum.fr/carte-des-terrains.html",
  "access": "Base ULM Accès privé",
  "city": "Conques",
  "manager": "jean pierre frery",
  "last": "2025-05-21",
  "notes": "approche en finale simple et plate . Tour de piste à l EST ; éviter survol de Saint marcel ( hameau à l'OUEST  Du terrain  si vous n'avez pas toucher au premier"
 },
 {
  "name": "Martigues-Henri Fabre",
  "lat": 43.42083,
  "lon": 5.07778,
  "country": "FR",
  "source": "BASULM",
  "url": "https://basulm.ffplum.fr/carte-des-terrains.html",
  "access": "HydroSurface Restreinte Autorisation OBLIGATOIRE",
  "city": "Martigues",
  "manager": "Ville de Martigues",
  "last": "2025-03-05",
  "notes": ""
 },
 {
  "name": "Jouques Bèdes",
  "lat": 43.66142,
  "lon": 5.68685,
  "country": "FR",
  "source": "BASULM",
  "url": "https://basulm.ffplum.fr/carte-des-terrains.html",
  "access": "Base ULM Accès limité Autorisation OBLIGATOIRE",
  "city": "Jouques",
  "manager": "Association des Pilotes ULM de Jouques",
  "last": "2025-10-07",
  "notes": "TdP 02 & 20 main gauche. Ligne HT à 680 m du seuil 20, venir à la hauteur de la ligne, le pylône est dans l’axe pour la finale. En finale 20 ne pas avoir peur d"
 },
 {
  "name": "La Ciotat",
  "lat": 43.17372,
  "lon": 5.64139,
  "country": "FR",
  "source": "BASULM",
  "url": "https://basulm.ffplum.fr/carte-des-terrains.html",
  "access": "HydroSurface Restreinte Autorisation OBLIGATOIRE",
  "city": "La-Ciotat",
  "manager": "préfecture maritime de la Méditerranée",
  "last": "2020-09-28",
  "notes": ""
 },
 {
  "name": "Aix en Provence Paramoteur",
  "lat": 43.68221,
  "lon": 5.41281,
  "country": "FR",
  "source": "BASULM",
  "url": "https://basulm.ffplum.fr/carte-des-terrains.html",
  "access": "Base Paramoteurs Privée Ouverte aux ULM sur autorisation",
  "city": "Le Puy-Sainte-Réparade",
  "manager": "Aix Paramoteur",
  "last": "2022-11-13",
  "notes": ""
 },
 {
  "name": "Bonneville la Louvet",
  "lat": 49.26344,
  "lon": 0.37172,
  "country": "FR",
  "source": "BASULM",
  "url": "https://basulm.ffplum.fr/carte-des-terrains.html",
  "access": "Base ULM Accès privé Utilisation EPISODIQUE",
  "city": "Bonneville-la-Louvet",
  "manager": "SC LES ECUREUILS",
  "last": "2025-07-27",
  "notes": "Piste en légère montée vers l'Est. Utiliser la 07 en priorité.  Parking au seuil de la 25 Tour de piste au Sud à 300 m sol Atterrissage QFU 07 : arbres Décollag"
 },
 {
  "name": "Courseulles sur Mer",
  "lat": 49.31414,
  "lon": -0.45321,
  "country": "FR",
  "source": "BASULM",
  "url": "https://basulm.ffplum.fr/carte-des-terrains.html",
  "access": "Base ULM Autorisation OBLIGATOIRE",
  "city": "Courseulles-sur-Mer",
  "manager": "Jean-Louis LAURENT",
  "last": "2023-04-14",
  "notes": "Tour de piste au sud. Piste 09-27 de 360m en légère montée au début.QFU préférentiel 09. above). Circuits to the South at 500'sfc. 3 grass runways; with little "
 },
 {
  "name": "La Boissière",
  "lat": 49.125,
  "lon": 0.1425,
  "country": "FR",
  "source": "BASULM",
  "url": "https://basulm.ffplum.fr/carte-des-terrains.html",
  "access": "Aérodrome Privé Avec Restrictions Autorisation OBLIGATOIRE",
  "city": "La Boissière",
  "manager": "Lisieux-ULM",
  "last": "2025-04-18",
  "notes": "Pas de tour de piste préférentiel. Évitez les tours de piste (voisinage)"
 },
 {
  "name": "Rouvres",
  "lat": 49.01991,
  "lon": -0.19829,
  "country": "FR",
  "source": "BASULM",
  "url": "https://basulm.ffplum.fr/carte-des-terrains.html",
  "access": "Base ULM Autorisation OBLIGATOIRE",
  "city": "Rouvres",
  "manager": "Hervé Ratel",
  "last": "2023-04-14",
  "notes": "Tours de piste côté est, hangar, manche à air."
 },
 {
  "name": "Omaha Beach",
  "lat": 49.35299,
  "lon": -0.84296,
  "country": "FR",
  "source": "BASULM",
  "url": "https://basulm.ffplum.fr/carte-des-terrains.html",
  "access": "Base ULM Accès privé",
  "city": "Colleville-sur-Mer",
  "manager": "",
  "last": "2025-10-20",
  "notes": "Tour de Piste 800 Pieds QNH à l'Est des installations.  Survol du Cimetière Militaire Américain à proximité à l'ouest interdit en dessous de 3000 Pieds QNH (Ras"
 },
 {
  "name": "Le Peuch",
  "lat": 44.90024,
  "lon": 3.10656,
  "country": "FR",
  "source": "BASULM",
  "url": "https://basulm.ffplum.fr/carte-des-terrains.html",
  "access": "Aérodrome Privé Ouvert aux ULM",
  "city": "Fridefont",
  "manager": "",
  "last": "2024-07-19",
  "notes": "Atterrissage en 01, décollage en 19"
 },
 {
  "name": "Le Bruel",
  "lat": 44.74295,
  "lon": 2.20036,
  "country": "FR",
  "source": "BASULM",
  "url": "https://basulm.ffplum.fr/carte-des-terrains.html",
  "access": "Base ULM Accès privé",
  "city": "Quézac",
  "manager": "",
  "last": "2023-04-14",
  "notes": "Atterrissage obligatoire en 36. Décollage obligatoire en 18."
 },
 {
  "name": "Pillac",
  "lat": 45.33177,
  "lon": 0.18471,
  "country": "FR",
  "source": "BASULM",
  "url": "https://basulm.ffplum.fr/carte-des-terrains.html",
  "access": "Base ULM Accès privé",
  "city": "Pillac",
  "manager": "",
  "last": "2025-08-29",
  "notes": "Piste ULM privée en montée et légèrement ondulée.  Utiliser comme une altisurface.   Atterrissage en 15 Décollage en 33.   Située sous la R49A (Cognac), plafond"
 },
 {
  "name": "Saint Maurice",
  "lat": 45.96673,
  "lon": 0.73969,
  "country": "FR",
  "source": "BASULM",
  "url": "https://basulm.ffplum.fr/carte-des-terrains.html",
  "access": "Aérodrome Privé Ouvert aux ULM",
  "city": "Saint-Maurice-des-Lions",
  "manager": "",
  "last": "2021-05-27",
  "notes": "Zone balisée et vérifiée : 270m par 22m en 2018 Tour de piste préférentiel \"main gauche\" Turbulences possibles QFU 18 liées à la proximité d'arbres Piste en lég"
 },
 {
  "name": "Saint Même Les Carrières",
  "lat": 45.63289,
  "lon": -0.15977,
  "country": "FR",
  "source": "BASULM",
  "url": "https://basulm.ffplum.fr/carte-des-terrains.html",
  "access": "Règles spécifiques d'accès",
  "city": "Saint-Même-Les-Carrières",
  "manager": "ACPL",
  "last": "2024-02-24",
  "notes": "Aérodrome situé à la limite de la CTR de classe D de Cognac.   Activité tous les jours même Base 709 active - Contacter Cognac Approche sur 132.45 Voir  \"Observ"
 },
 {
  "name": "Saint Coutant",
  "lat": 46.01896,
  "lon": 0.43314,
  "country": "FR",
  "source": "BASULM",
  "url": "https://basulm.ffplum.fr/carte-des-terrains.html",
  "access": "Base ULM Autorisation OBLIGATOIRE",
  "city": "Saint-Coutant",
  "manager": "",
  "last": "2023-04-14",
  "notes": ""
 },
 {
  "name": "Le Luquet",
  "lat": 45.64322,
  "lon": 0.33117,
  "country": "FR",
  "source": "BASULM",
  "url": "https://basulm.ffplum.fr/carte-des-terrains.html",
  "access": "Base ULM Autorisation OBLIGATOIRE",
  "city": "Chazelles",
  "manager": "Bonnoron Jean Paul",
  "last": "2023-04-14",
  "notes": "PPR : CONTACT PREALABLE IMPERATIF  Jean Paul Bonnoron tél :06 70 64 23 97   Survol des habitations à éviter.  Attention à la turbulence du hangar par vent d'oue"
 },
 {
  "name": "Aignes et Puyperoux",
  "lat": 45.46167,
  "lon": 0.15782,
  "country": "FR",
  "source": "BASULM",
  "url": "https://basulm.ffplum.fr/carte-des-terrains.html",
  "access": "Base ULM Accès limité Autorisation OBLIGATOIRE",
  "city": "Montmoreau",
  "manager": "Ulm Club Montmorelien",
  "last": "2026-01-11",
  "notes": "Atterrissage en 31 attention turbulences par vent de N et présence d'arbres dans l'axe de piste (15 à 20 m).   Piste 31 en légère descente.   Tour de piste au s"
 },
 {
  "name": "Brettes",
  "lat": 46.01125,
  "lon": 0.05256,
  "country": "FR",
  "source": "BASULM",
  "url": "https://basulm.ffplum.fr/carte-des-terrains.html",
  "access": "Base ULM Autorisation OBLIGATOIRE",
  "city": "Villefagnan",
  "manager": "Nord Charente ULM",
  "last": "2023-04-14",
  "notes": "ligne électrique à l'EST en approche 25 'prudence' Piste facilement inondable après fortes pluies Éviter impérativement le survol des habitations et du village "
 },
 {
  "name": "Saint Ciers",
  "lat": 45.85056,
  "lon": 0.26517,
  "country": "FR",
  "source": "BASULM",
  "url": "https://basulm.ffplum.fr/carte-des-terrains.html",
  "access": "Base ULM Autorisation OBLIGATOIRE",
  "city": "Saint-Ciers-sur-Bonnieure",
  "manager": "Changeur Eric",
  "last": "2025-06-10",
  "notes": "Tour de piste standard 500 ft.à main gauche pour la 23 et main droite pour la 05."
 },
 {
  "name": "Champ rose",
  "lat": 45.35678,
  "lon": 0.10981,
  "country": "FR",
  "source": "BASULM",
  "url": "https://basulm.ffplum.fr/carte-des-terrains.html",
  "access": "Aérodrome Privé Ouvert aux ULM",
  "city": "Saint-Laurent-de-Belzagot",
  "manager": "privé",
  "last": "2026-01-11",
  "notes": ""
 },
 {
  "name": "CHENOMMET",
  "lat": 45.92598,
  "lon": 0.26131,
  "country": "FR",
  "source": "BASULM",
  "url": "https://basulm.ffplum.fr/carte-des-terrains.html",
  "access": "Base ULM Autorisation OBLIGATOIRE",
  "city": "Chenommet/Aunac-sur-Charente",
  "manager": "Anne Teillet",
  "last": "2025-01-20",
  "notes": "Altitude tour de piste 1000 ft QNH Tour de piste au Nord / Nord-Est à main gauche pour la 13 et à main droite pour la 31 Pour la 31, seuil décalé à 150 m de la "
 },
 {
  "name": "La Broue",
  "lat": 45.76988,
  "lon": 0.01858,
  "country": "FR",
  "source": "BASULM",
  "url": "https://basulm.ffplum.fr/carte-des-terrains.html",
  "access": "Base ULM Accès limité Autorisation OBLIGATOIRE",
  "city": "Genac Bignac",
  "manager": "Gerard Martron",
  "last": "2023-04-14",
  "notes": "Reconnaissance du terrain type montagne Terrain en pente avec dévers ouest sur une partie de la piste  Piste préférentiel 02 jusqu'a 10 noeuds de vent arrière A"
 },
 {
  "name": "Condac",
  "lat": 46.02035,
  "lon": 0.24239,
  "country": "FR",
  "source": "BASULM",
  "url": "https://basulm.ffplum.fr/carte-des-terrains.html",
  "access": "Base ULM Accès privé",
  "city": "Condac",
  "manager": "",
  "last": "2023-04-14",
  "notes": "Circuit coté ouest. Piste en légère montée vers le Nord. ATR en 36, D/L en 18. Ligne HT à 400m au nord."
 },
 {
  "name": "La Grande Métairie",
  "lat": 45.88704,
  "lon": 0.32024,
  "country": "FR",
  "source": "BASULM",
  "url": "https://basulm.ffplum.fr/carte-des-terrains.html",
  "access": "Base ULM Autorisation OBLIGATOIRE",
  "city": "Valence",
  "manager": "GERVAIS de LAFOND Nicolas",
  "last": "2024-11-17",
  "notes": "- tour de piste préférentiel à l'est en  33 (éviter le survol des habitations) - tour de piste 500 pieds sol - atterrissage : axe préférentiel en 15  - décollag"
 },
 {
  "name": "Boistizon",
  "lat": 45.86838,
  "lon": 0.44119,
  "country": "FR",
  "source": "BASULM",
  "url": "https://basulm.ffplum.fr/carte-des-terrains.html",
  "access": "Aérodrome Privé Ouvert aux ULM",
  "city": "Lussac",
  "manager": "P. Baraud",
  "last": "2024-03-20",
  "notes": "tour de piste à l'ouest"
 },
 {
  "name": "Bossard",
  "lat": 45.58082,
  "lon": 0.42331,
  "country": "FR",
  "source": "BASULM",
  "url": "https://basulm.ffplum.fr/carte-des-terrains.html",
  "access": "Base ULM Accès privé",
  "city": "Grassac",
  "manager": "",
  "last": "2026-04-07",
  "notes": "Tour de piste en Sud-Est à 700 pieds,"
 },
 {
  "name": "Jarnac Champagne",
  "lat": 45.55974,
  "lon": -0.41782,
  "country": "FR",
  "source": "BASULM",
  "url": "https://basulm.ffplum.fr/carte-des-terrains.html",
  "access": "Base ULM Accès privé",
  "city": "Jarnac-Champagne",
  "manager": "",
  "last": "2023-04-14",
  "notes": "Sud"
 },
 {
  "name": "Nantillé",
  "lat": 45.84556,
  "lon": -0.47833,
  "country": "FR",
  "source": "BASULM",
  "url": "https://basulm.ffplum.fr/carte-des-terrains.html",
  "access": "Base ULM Autorisation OBLIGATOIRE",
  "city": "Nantillé",
  "manager": "Club ULM",
  "last": "2026-04-07",
  "notes": "Intégration standard Tour piste SUD/EST Seuils décalés cause chemins - piste 350m effectifs Bosse ; peut allonger atterrissage en 04 et décollage en 22 Cultures"
 },
 {
  "name": "Corme Ecluse",
  "lat": 45.62076,
  "lon": -0.85126,
  "country": "FR",
  "source": "BASULM",
  "url": "https://basulm.ffplum.fr/carte-des-terrains.html",
  "access": "Base ULM Autorisation OBLIGATOIRE",
  "city": "Corme Ecluse",
  "manager": "Air Ocean Royan",
  "last": "2024-07-13",
  "notes": "Survol des habitations à éviter donc tour de piste assez court"
 },
 {
  "name": "Le Thou",
  "lat": 46.08709,
  "lon": -0.94309,
  "country": "FR",
  "source": "BASULM",
  "url": "https://basulm.ffplum.fr/carte-des-terrains.html",
  "access": "Base ULM Autorisation OBLIGATOIRE",
  "city": "Le Thou",
  "manager": "Gestionnaire  AÉRO-FOCUS",
  "last": "2026-02-09",
  "notes": "-Vertical terrain 1500ft/sol et tour de piste MAIN GAUCHE à 1500ft/sol    -Au décollage piste 21 préférentielle -A l’atterrissage piste 21 délicate avec seuil d"
 },
 {
  "name": "Courçon Eol'Aunis",
  "lat": 46.24823,
  "lon": -0.83081,
  "country": "FR",
  "source": "BASULM",
  "url": "https://basulm.ffplum.fr/carte-des-terrains.html",
  "access": "Base ULM Accès privé",
  "city": "Courçon d'Aunis",
  "manager": "Courçon Eol'Aunis",
  "last": "2024-03-05",
  "notes": "Tour de piste au Nord impératif. QFU préférentiel : 28. Léger dévers vers le Sud. Utiliser de préférence la moitié Nord de la piste.. Présence fréquente de para"
 },
 {
  "name": "Bourcefranc",
  "lat": 45.87204,
  "lon": -1.13123,
  "country": "FR",
  "source": "BASULM",
  "url": "https://basulm.ffplum.fr/carte-des-terrains.html",
  "access": "HydroSurface Restreinte Autorisation OBLIGATOIRE",
  "city": "Bourcefranc",
  "manager": "PREMAR ATLANTIQUE",
  "last": "2021-05-27",
  "notes": ""
 },
 {
  "name": "Arvert",
  "lat": 45.74662,
  "lon": -1.09709,
  "country": "FR",
  "source": "BASULM",
  "url": "https://basulm.ffplum.fr/carte-des-terrains.html",
  "access": "Base Paramoteurs Réglementé Avec Restrictions Autorisation OBLIGATOIRE",
  "city": "Arvert",
  "manager": "Paramoteur Poitou-Charentes",
  "last": "2025-12-02",
  "notes": ""
 },
 {
  "name": "Ferme du Fleuret",
  "lat": 45.92111,
  "lon": -0.41495,
  "country": "FR",
  "source": "BASULM",
  "url": "https://basulm.ffplum.fr/carte-des-terrains.html",
  "access": "Base ULM Accès privé",
  "city": "Varaize",
  "manager": "CLAUDE MICHENEAU",
  "last": "2025-04-09",
  "notes": "lire attentivement la carte VAC ci-jointe, tours de pistes à respecter et surtout visualiser les lignes électriques HT."
 },
 {
  "name": "Coust Colombiers",
  "lat": 46.67914,
  "lon": 2.57438,
  "country": "FR",
  "source": "BASULM",
  "url": "https://basulm.ffplum.fr/carte-des-terrains.html",
  "access": "Aérodrome Privé Ouvert aux ULM",
  "city": "Coust",
  "manager": "Albert Lacombe",
  "last": "2016-01-25",
  "notes": ""
 },
 {
  "name": "Guilly",
  "lat": 47.14833,
  "lon": 2.59889,
  "country": "FR",
  "source": "BASULM",
  "url": "https://basulm.ffplum.fr/carte-des-terrains.html",
  "access": "Aérodrome Privé Avec Restrictions Autorisation OBLIGATOIRE",
  "city": "Brécy",
  "manager": "",
  "last": "2019-10-28",
  "notes": "Piste située dans la CTR d'AVORD.. Clearance obligatoire. Transpondeur mode S obligatoire. Contact radio obligatoire à 10 mn du terrain, sur 119.7 ou 122.10 Ne "
 },
 {
  "name": "Sury en Vaux",
  "lat": 47.38083,
  "lon": 2.78325,
  "country": "FR",
  "source": "BASULM",
  "url": "https://basulm.ffplum.fr/carte-des-terrains.html",
  "access": "Base ULM ouverte tous types",
  "city": "Sury-en-Vaux",
  "manager": "AEROPLUM SANCERROIS",
  "last": "2025-04-30",
  "notes": "Circuit au nord (08 main gauche - 26 main droite) à 500 ft sol. Piste 08 en montée (6 % maxi en début de piste puis plat). Verticale avant intégration indispens"
 },
 {
  "name": "Dun sur Auron",
  "lat": 46.87618,
  "lon": 2.50351,
  "country": "FR",
  "source": "BASULM",
  "url": "https://basulm.ffplum.fr/carte-des-terrains.html",
  "access": "Base ULM ouverte tous types",
  "city": "Dun-sur-Auron",
  "manager": "Club Ulm of Blueberry",
  "last": "2026-01-05",
  "notes": "Plateforme sous les zones LF-R20 A2 et LF-R139 contact Avord App. 119.7 . Située dans les marais de Contres, la partie basse du terrain est spongieuse après de "
 },
 {
  "name": "Sainte Thorette",
  "lat": 47.07609,
  "lon": 2.2148,
  "country": "FR",
  "source": "BASULM",
  "url": "https://basulm.ffplum.fr/carte-des-terrains.html",
  "access": "Base ULM Autorisation OBLIGATOIRE",
  "city": "Sainte-Thorette",
  "manager": "Club ULM de Bourges / Sainte Thorette",
  "last": "2025-10-30",
  "notes": "TDP au sud, 500 ft ASFC (TDP court) ou 800 ft ASFC (TDP Long). Verticale piste 1000 ft AFSC mini.   Ne pas survoler les deux fermes présentes aux abords de la p"
 },
 {
  "name": "Saint Christophe",
  "lat": 46.58039,
  "lon": 2.40383,
  "country": "FR",
  "source": "BASULM",
  "url": "https://basulm.ffplum.fr/carte-des-terrains.html",
  "access": "Base ULM Autorisation OBLIGATOIRE",
  "city": "Saint-Christophe-Le-Chaudry",
  "manager": "ULM PULSION",
  "last": "2026-04-22",
  "notes": "Piste située sous la R 145 B (plancher surface 0 - AGL, plafond 4500 ft AMSL)  et sous la LF-R 20 B3 E (plancher 3000 ft AMSL)  Tour de piste à l'est 1600 ft QN"
 },
 {
  "name": "Jouet sur l'Aubois",
  "lat": 47.04249,
  "lon": 2.9956,
  "country": "FR",
  "source": "BASULM",
  "url": "https://basulm.ffplum.fr/carte-des-terrains.html",
  "access": "Base ULM Accès privé",
  "city": "Argenvières (18140)",
  "manager": "",
  "last": "2023-04-14",
  "notes": "Tour de piste au sud , éviter le survol des habitations. Axe 25 : Approche par l'est (repère: cimetière)  Piste en légère montée sur 200m, reste 80m. Axe 07 : A"
 },
 {
  "name": "Apple Airfield",
  "lat": 47.21307,
  "lon": 2.41906,
  "country": "FR",
  "source": "BASULM",
  "url": "https://basulm.ffplum.fr/carte-des-terrains.html",
  "access": "Base ULM Accès privé",
  "city": "Saint-Martin-d'Auxigny",
  "manager": "",
  "last": "2023-07-08",
  "notes": "Tour de piste au Nord. Ne pas survoler les communes et les fermes avoisinantes."
 },
 {
  "name": "Rechignon",
  "lat": 47.17528,
  "lon": 2.6,
  "country": "FR",
  "source": "BASULM",
  "url": "https://basulm.ffplum.fr/carte-des-terrains.html",
  "access": "Aérodrome Privé Avec Restrictions Autorisation OBLIGATOIRE",
  "city": "Rians",
  "manager": "Pierre-Marie GOURDIN",
  "last": "2024-05-08",
  "notes": ""
 },
 {
  "name": "Peyrelevade",
  "lat": 45.70765,
  "lon": 2.03256,
  "country": "FR",
  "source": "BASULM",
  "url": "https://basulm.ffplum.fr/carte-des-terrains.html",
  "access": "Aérodrome Privé Ouvert aux ULM",
  "city": "Peyrelevade",
  "manager": "",
  "last": "2024-01-16",
  "notes": "Tour de piste standard main gauche."
 },
 {
  "name": "Lagarde Enval",
  "lat": 45.1772,
  "lon": 1.80278,
  "country": "FR",
  "source": "BASULM",
  "url": "https://basulm.ffplum.fr/carte-des-terrains.html",
  "access": "Aérodrome Privé Ouvert aux ULM",
  "city": "Lagarde-Enval",
  "manager": "",
  "last": "2016-07-22",
  "notes": "Atterrissage 22 - Décollage 04 - Tour de piste côté Sud Profil : 4 % moyen, irrégulier Deux lignes électriques HT convergentes: l'une au NE à 370m du seuil 22, "
 },
 {
  "name": "Troches-Pompadour",
  "lat": 45.40805,
  "lon": 1.42023,
  "country": "FR",
  "source": "BASULM",
  "url": "https://basulm.ffplum.fr/carte-des-terrains.html",
  "access": "Base ULM Accès privé",
  "city": "Troche",
  "manager": "Gilles ABOUT",
  "last": "2023-04-14",
  "notes": ""
 },
 {
  "name": "Saint Cernin de Larche",
  "lat": 45.10773,
  "lon": 1.41067,
  "country": "FR",
  "source": "BASULM",
  "url": "https://basulm.ffplum.fr/carte-des-terrains.html",
  "access": "Aérodrome fermé.",
  "city": "Saint-Cernin-de-l'Arche",
  "manager": "",
  "last": "2023-06-30",
  "notes": "Aérodrome fermé définitivement (terrain agricole)"
 },
 {
  "name": "Variéras",
  "lat": 45.61056,
  "lon": 1.99278,
  "country": "FR",
  "source": "BASULM",
  "url": "https://basulm.ffplum.fr/carte-des-terrains.html",
  "access": "Base ULM Accès privé Utilisation EPISODIQUE",
  "city": "Pérols-sur-Vézère",
  "manager": "",
  "last": "2025-12-18",
  "notes": "Plateforme réservée uniquement et strictement à l’usage du propriétaire. Pour des raisons de sécurité aucun invité ne peut être accueilli."
 },
 {
  "name": "Les Chansèves",
  "lat": 45.0901,
  "lon": 1.85536,
  "country": "FR",
  "source": "BASULM",
  "url": "https://basulm.ffplum.fr/carte-des-terrains.html",
  "access": "Base ULM Autorisation OBLIGATOIRE",
  "city": "Monceaux-sur-Dordogne",
  "manager": "Corrèze Vol, Libre",
  "last": "2026-03-12",
  "notes": "Seuils décalés 14/32 pour la piste en dur (32 en surplomb et arbres hauts en 14) Attention à l'activité vol libre importante à la belle saison (treuillé, remorq"
 },
 {
  "name": "Lagleygeolle",
  "lat": 45.08017,
  "lon": 1.67336,
  "country": "FR",
  "source": "BASULM",
  "url": "https://basulm.ffplum.fr/carte-des-terrains.html",
  "access": "Aérodrome Privé Ouvert aux ULM",
  "city": "Lagleygeolle",
  "manager": "cognac bernard",
  "last": "2025-12-18",
  "notes": "PPR : Autorisation du propriétaire obligatoire.  Éviter survol centre de naturiste Puy Bousquet (dans les pins) ainsi que château du Theil (axe décollage 07) At"
 },
 {
  "name": "Pérols sur Vézère",
  "lat": 45.58734,
  "lon": 2.01324,
  "country": "FR",
  "source": "BASULM",
  "url": "https://basulm.ffplum.fr/carte-des-terrains.html",
  "access": "AltiSurface en service",
  "city": "Pérols-sur-Vézère",
  "manager": "ACB Egletonnais",
  "last": "2025-12-18",
  "notes": "Tour de Piste Main Gauche. ATR en 23, DL en 07"
 },
 {
  "name": "Savignoux",
  "lat": 45.01259,
  "lon": 1.78181,
  "country": "FR",
  "source": "BASULM",
  "url": "https://basulm.ffplum.fr/carte-des-terrains.html",
  "access": "Base ULM Accès privé",
  "city": "Puy-d'Arnac",
  "manager": "SAVIGEST -  GOLF DE PUY D'ARNAC",
  "last": "2023-04-14",
  "notes": "longueur de la piste goudron = 200 m longueur de la piste réelle herbe + goudron = 400 m"
 },
 {
  "name": "Chassancet",
  "lat": 45.1574,
  "lon": 1.72687,
  "country": "FR",
  "source": "BASULM",
  "url": "https://basulm.ffplum.fr/carte-des-terrains.html",
  "access": "Base ULM fermée définitivement",
  "city": "BEYNAT",
  "manager": "Corréze Paramoteur Beynat Envol",
  "last": "2026-04-18",
  "notes": "FERMETURE DÉFINITIVE par Arrêté 19-2025-11-28-00005 portant fermeture définitive de deux plates-formes ULM BEYNAT lieu dit Chassancet"
 },
 {
  "name": "Auxey Duresses",
  "lat": 46.99889,
  "lon": 4.73513,
  "country": "FR",
  "source": "BASULM",
  "url": "https://basulm.ffplum.fr/carte-des-terrains.html",
  "access": "Aérodrome Privé Ouvert aux ULM",
  "city": "Auxey Duresses",
  "manager": "",
  "last": "2018-06-13",
  "notes": ""
 },
 {
  "name": "Chaume et Courchamp",
  "lat": 47.57492,
  "lon": 5.35099,
  "country": "FR",
  "source": "BASULM",
  "url": "https://basulm.ffplum.fr/carte-des-terrains.html",
  "access": "Aérodrome Privé Avec Restrictions Autorisation OBLIGATOIRE",
  "city": "Chaume-et-Courchamp",
  "manager": "Rohrer",
  "last": "2026-06-23",
  "notes": "PPR : Aérodrome privé réservé au propriétaire et aux amis du propriétaire ainsi qu'a ceux ayant l'autorisation d'atterrissage Attention piste montante côté 23 e"
 },
 {
  "name": "Dampierre et Flée",
  "lat": 47.47739,
  "lon": 5.35838,
  "country": "FR",
  "source": "BASULM",
  "url": "https://basulm.ffplum.fr/carte-des-terrains.html",
  "access": "Aérodrome Privé Avec Restrictions Autorisation OBLIGATOIRE",
  "city": "Dampierre-et-Flée",
  "manager": "Aéroclub Les Cols Verts",
  "last": "2023-05-11",
  "notes": "Tour de piste à l'Ouest."
 },
 {
  "name": "Souhil",
  "lat": 47.92261,
  "lon": 4.76866,
  "country": "FR",
  "source": "BASULM",
  "url": "https://basulm.ffplum.fr/carte-des-terrains.html",
  "access": "Base ULM Accès privé",
  "city": "Courban",
  "manager": "",
  "last": "2023-04-14",
  "notes": "ATTENTION : ligne haute tension en entrée de piste 20"
 },
 {
  "name": "Recey Le Mont de Lucey",
  "lat": 47.79407,
  "lon": 4.85512,
  "country": "FR",
  "source": "BASULM",
  "url": "https://basulm.ffplum.fr/carte-des-terrains.html",
  "access": "Aérodrome Privé Avec Restrictions Autorisation OBLIGATOIRE",
  "city": "Recey-sur-Ource",
  "manager": "",
  "last": "2024-03-07",
  "notes": "ATTERRISSAGE AU QFU 05  (piste montante + dévers au seuil 05)  DÉCOLLAGE AU QFU 23 Tour de piste main droite, 1800Ft QNH pour les ULM, 2300Ft QNH pour les avion"
 },
 {
  "name": "Saint Jean de Losne",
  "lat": 47.07358,
  "lon": 5.26616,
  "country": "FR",
  "source": "BASULM",
  "url": "https://basulm.ffplum.fr/carte-des-terrains.html",
  "access": "Base ULM ouverte tous types",
  "city": "Losne",
  "manager": "",
  "last": "2026-05-28",
  "notes": "Intégration 500 ft, Tour de piste à l'ouest attention, ligne moyenne tension Particularité : Pas de survol des habitations. CTR de Dole Tavaux à proximité  Atte"
 },
 {
  "name": "Saint-Romain",
  "lat": 47.01702,
  "lon": 4.6996,
  "country": "FR",
  "source": "BASULM",
  "url": "https://basulm.ffplum.fr/carte-des-terrains.html",
  "access": "Aérodrome Privé Ouvert aux ULM",
  "city": "Saint-Romain",
  "manager": "",
  "last": "2019-12-09",
  "notes": "Aérodrome privé."
 },
 {
  "name": "Nantoux",
  "lat": 47.02391,
  "lon": 4.75732,
  "country": "FR",
  "source": "BASULM",
  "url": "https://basulm.ffplum.fr/carte-des-terrains.html",
  "access": "Aérodrome privé fermé définitivement.",
  "city": "Nantoux",
  "manager": "",
  "last": "2025-11-28",
  "notes": "Seuil décalé de 50m en 30 cause clôture. Ne pas survoler le hameau. Tour de piste main droite. Atterrissage préférentiel QFU 30. pente montante de 5% en 30 Déco"
 },
 {
  "name": "Blanot",
  "lat": 47.17389,
  "lon": 4.23363,
  "country": "FR",
  "source": "BASULM",
  "url": "https://basulm.ffplum.fr/carte-des-terrains.html",
  "access": "Base ULM Accès privé",
  "city": "Blanot",
  "manager": "",
  "last": "2023-04-14",
  "notes": "Piste en herbe située dans la R45B, de type altisurface montant en 24. Tour de piste à l'ouest. Expérience montagne recommandée. Profil 24 : 145m en rampe de 10"
 },
 {
  "name": "Kerfot la Paimpolaise",
  "lat": 48.72388,
  "lon": -3.02705,
  "country": "FR",
  "source": "BASULM",
  "url": "https://basulm.ffplum.fr/carte-des-terrains.html",
  "access": "Base ULM Autorisation OBLIGATOIRE",
  "city": "Kerfot",
  "manager": "ULM club La Paimpolaise",
  "last": "2025-12-30",
  "notes": "Téléphone impératif avant venir : visite possible de sangliers.  Tour de piste à l'Ouest.  Branche vent AR à l'Ouest du village Yvias.  Etape de Base 33 vertica"
 },
 {
  "name": "Évaux",
  "lat": 46.16996,
  "lon": 2.43081,
  "country": "FR",
  "source": "BASULM",
  "url": "https://basulm.ffplum.fr/carte-des-terrains.html",
  "access": "Aérodrome Privé Ouvert aux ULM",
  "city": "Chambon-sur-Voueize",
  "manager": "",
  "last": "2019-11-13",
  "notes": "Aérodrome privé."
 },
 {
  "name": "Le Pommier",
  "lat": 46.19677,
  "lon": 1.45277,
  "country": "FR",
  "source": "BASULM",
  "url": "https://basulm.ffplum.fr/carte-des-terrains.html",
  "access": "Base ULM Autorisation OBLIGATOIRE",
  "city": "Saint-Maurice-la-Souterraine",
  "manager": "",
  "last": "2026-06-15",
  "notes": "Piste genre altiport, ne pas hésiter à plonger pour toucher  vers le seuil, si impression d'être trop long, remettre les gaz et passer dans la trouée. Attention"
 },
 {
  "name": "Le Pouyollet Lizières",
  "lat": 46.21263,
  "lon": 1.57225,
  "country": "FR",
  "source": "BASULM",
  "url": "https://basulm.ffplum.fr/carte-des-terrains.html",
  "access": "Règles spécifiques d'accès",
  "city": "Lizières",
  "manager": "Propriétaire",
  "last": "2016-02-04",
  "notes": "03 piste montante. Tour de piste main gauche. Obstacles : ligne électrique en courte finale 03, arbres à droite de la piste en 03.  Attention léger dévers  gauc"
 },
 {
  "name": "Augignac",
  "lat": 45.56299,
  "lon": 0.70446,
  "country": "FR",
  "source": "BASULM",
  "url": "https://basulm.ffplum.fr/carte-des-terrains.html",
  "access": "Aérodrome Privé Ouvert aux ULM",
  "city": "Augignac",
  "manager": "Faure Albert",
  "last": "2017-12-14",
  "notes": "ATR en 22: forte déclivité début de piste - Circuit par l'Est Profil piste: plat (50m) + 6,6% (150m) + 3,6% (325m) Piste étroite (20m). Éviter survol château Le"
 },
 {
  "name": "Beaumont",
  "lat": 44.76599,
  "lon": 0.72467,
  "country": "FR",
  "source": "BASULM",
  "url": "https://basulm.ffplum.fr/carte-des-terrains.html",
  "access": "Aérodrome Privé Ouvert aux ULM",
  "city": "Beaumont",
  "manager": "",
  "last": "2021-05-18",
  "notes": ""
 },
 {
  "name": "Condat sur Vézère",
  "lat": 45.10376,
  "lon": 1.21505,
  "country": "FR",
  "source": "BASULM",
  "url": "https://basulm.ffplum.fr/carte-des-terrains.html",
  "access": "Aérodrome Privé Ouvert aux ULM",
  "city": "Condat-sur-Vézère",
  "manager": "Roland BOISSIERE",
  "last": "2021-05-18",
  "notes": "Tour de Piste à l'ouest, atterrissage uniquement en 35  Décollage uniquement en 17. Attention ! La piste en herbe est fermée par arrêté préfectoral.  Tour de pi"
 },
 {
  "name": "Eyrignac",
  "lat": 44.9431,
  "lon": 1.31208,
  "country": "FR",
  "source": "BASULM",
  "url": "https://basulm.ffplum.fr/carte-des-terrains.html",
  "access": "Aérodrome Privé Ouvert aux ULM",
  "city": "Salignac",
  "manager": "",
  "last": "2023-12-15",
  "notes": "Attention, c'est une piste en pente mais qui ne présente pas de difficulté particulière. Visez le milieu de la piste, puis roulez avec du gaz jusqu'à la partie "
 },
 {
  "name": "Javerlhac",
  "lat": 45.55382,
  "lon": 0.5585,
  "country": "FR",
  "source": "BASULM",
  "url": "https://basulm.ffplum.fr/carte-des-terrains.html",
  "access": "Aérodrome Privé Ouvert aux ULM",
  "city": "Javerlhac-et-la-Chapelle-Saint-Robert",
  "manager": "",
  "last": "2024-08-04",
  "notes": "Atterrissage préférentiel en 23 après un tour de piste côté sud-est  Eviter le survol du bourg de Javerlhac La piste a retrouvé sa longueur initiale."
 },
 {
  "name": "Liorac sur Louyre",
  "lat": 44.91889,
  "lon": 0.64556,
  "country": "FR",
  "source": "BASULM",
  "url": "https://basulm.ffplum.fr/carte-des-terrains.html",
  "access": "Aérodrome Privé Interdit aux ULM Autorisation OBLIGATOIRE",
  "city": "Liorac-sur-Louyre",
  "manager": "",
  "last": "2023-06-30",
  "notes": "Aérodrome privé exclusivement réservé aux aéronefs basés"
 },
 {
  "name": "Pressignac Vicq Rebeyrotte",
  "lat": 44.90287,
  "lon": 0.74798,
  "country": "FR",
  "source": "BASULM",
  "url": "https://basulm.ffplum.fr/carte-des-terrains.html",
  "access": "Aérodrome Privé Ouvert aux ULM",
  "city": "Pressignac-Vicq",
  "manager": "Aéro Club Ferme du Rebeyrotte",
  "last": "2022-03-07",
  "notes": "Tours de piste côté ouest Aux abords du terrain, écoute et transmission radio obligatoire A/A (=auto information): 123,500 MHz  L'aérodrome vu du ciel (photo pr"
 },
 {
  "name": "La Rochebeaucourt Argentine",
  "lat": 45.46666,
  "lon": 0.3875,
  "country": "FR",
  "source": "BASULM",
  "url": "https://basulm.ffplum.fr/carte-des-terrains.html",
  "access": "Aérodrome Privé Avec Restrictions Autorisation OBLIGATOIRE",
  "city": "la Rochebeaucourt-et-Argentine",
  "manager": "Association Aéronautique De La Rochebeaucourt",
  "last": "2025-07-18",
  "notes": "Tour de piste : hauteur 1000 pieds sol à l'Ouest Intégration verticale piste hauteur 1500 pieds sol. Ne pas survoler le nord des installations  Terrain situé so"
 },
 {
  "name": "Saint Crépin Carlucet",
  "lat": 44.96695,
  "lon": 1.25074,
  "country": "FR",
  "source": "BASULM",
  "url": "https://basulm.ffplum.fr/carte-des-terrains.html",
  "access": "Aérodrome Privé Ouvert aux ULM",
  "city": "Saint-Crépin-et-Carlucet",
  "manager": "Héliclub du Périgord",
  "last": "2024-01-10",
  "notes": "Trouée unique: atterrissage en 24 obligatoire Décollage en 06   Turbulences en entrée de piste Papi pour approche de nuit avec le balisage."
 },
 {
  "name": "Saint Julien",
  "lat": 44.72863,
  "lon": 0.44623,
  "country": "FR",
  "source": "BASULM",
  "url": "https://basulm.ffplum.fr/carte-des-terrains.html",
  "access": "Aérodrome Privé Ouvert aux ULM",
  "city": "Saint-Julien-d'Eymet",
  "manager": "",
  "last": "2021-05-18",
  "notes": ""
 },
 {
  "name": "Peyrillac",
  "lat": 44.89017,
  "lon": 1.41643,
  "country": "FR",
  "source": "BASULM",
  "url": "https://basulm.ffplum.fr/carte-des-terrains.html",
  "access": "Aérodrome Privé Ouvert aux ULM",
  "city": "Peyrillac-et-Millac",
  "manager": "Domaine de Ginestet",
  "last": "2019-12-09",
  "notes": "Atterrissage impératif en 01 (9% de pente régulière sur 400m puis plat sur les 50m restants)  Décollage en 19, tour de piste à l'ouest  Arbres proches de la pis"
 },
 {
  "name": "Sud-Ouest  Aéro-Loisirs",
  "lat": 45.44046,
  "lon": 1.22681,
  "country": "FR",
  "source": "BASULM",
  "url": "https://basulm.ffplum.fr/carte-des-terrains.html",
  "access": "Base ULM Privé Avec Restrictions Autorisation OBLIGATOIRE",
  "city": "Payzac",
  "manager": "Sud-Ouest  Aéro-Loisirs",
  "last": "2023-04-14",
  "notes": "Piste située dans la R166B Périgord - Atterrissage préférentiel en 05 (montante 3%) & décollage en 23."
 },
 {
  "name": "Hautefaye",
  "lat": 45.5453,
  "lon": 0.49332,
  "country": "FR",
  "source": "BASULM",
  "url": "https://basulm.ffplum.fr/carte-des-terrains.html",
  "access": "Base ULM Accès privé",
  "city": "Hautefaye",
  "manager": "Jean-Marie PORTAIN",
  "last": "2025-08-16",
  "notes": "La piste est longue mais présente de larges ondulations.  On s'y fait très bien en étant prévenu. piste montante QFU 20 en fond de vallon. piste de préférence p"
 },
 {
  "name": "Sanet Agonac",
  "lat": 45.2526,
  "lon": 0.76303,
  "country": "FR",
  "source": "BASULM",
  "url": "https://basulm.ffplum.fr/carte-des-terrains.html",
  "access": "Base ULM Autorisation OBLIGATOIRE",
  "city": "Agonac",
  "manager": "",
  "last": "2023-04-14",
  "notes": ""
 },
 {
  "name": "Ferme Milhac- Oie en Périgord",
  "lat": 45.11325,
  "lon": 0.92242,
  "country": "FR",
  "source": "BASULM",
  "url": "https://basulm.ffplum.fr/carte-des-terrains.html",
  "access": "Base ULM Privé Avec Restrictions Autorisation OBLIGATOIRE",
  "city": "Bassillac-et-Auberoche",
  "manager": "Aéro-Club Périgord ULM",
  "last": "2023-04-14",
  "notes": "Trouée unique type altiport: Atter en 27 Décol en 09.  Piste courte montante dans le sens atterr réservée aux pilotes expérimentés. Turbulences. Circuit de pist"
 },
 {
  "name": "Terrasson le Bos",
  "lat": 45.13434,
  "lon": 1.33656,
  "country": "FR",
  "source": "BASULM",
  "url": "https://basulm.ffplum.fr/carte-des-terrains.html",
  "access": "Base ULM Autorisation OBLIGATOIRE",
  "city": "Terrasson-Lavilledieu",
  "manager": "Association Demain Ailleurs, Club ULM \"Le bos vol\"",
  "last": "2025-04-24",
  "notes": "Préférentielle en 35.  Bien utiliser les passages pour le taxiway.  La bande d'atterrissage peut être grasse après de fortes pluies en hiver.   Éviter le survol"
 },
 {
  "name": "Piste du Tartou",
  "lat": 45.65019,
  "lon": 0.57493,
  "country": "FR",
  "source": "BASULM",
  "url": "https://basulm.ffplum.fr/carte-des-terrains.html",
  "access": "Base ULM Autorisation OBLIGATOIRE",
  "city": "Tartou",
  "manager": "Patrick Bernard",
  "last": "2023-04-14",
  "notes": "Intégration 1000 ft AGL Tour de piste 500 ft AGL"
 },
 {
  "name": "Galinat Tamnies les Eyzies",
  "lat": 44.99182,
  "lon": 1.14206,
  "country": "FR",
  "source": "BASULM",
  "url": "https://basulm.ffplum.fr/carte-des-terrains.html",
  "access": "Aérodrome fermé.",
  "city": "Tamniès-Galinat",
  "manager": "",
  "last": "2022-06-29",
  "notes": "Atterrissage impératif en 16 : 9% sur 60 m puis 4,2% sur 390 m.  Tour de piste à l'est,  Survol du village interdit,   Point d'entrée : les deux châteaux d'eau,"
 },
 {
  "name": "Plazac",
  "lat": 45.02668,
  "lon": 1.01425,
  "country": "FR",
  "source": "BASULM",
  "url": "https://basulm.ffplum.fr/carte-des-terrains.html",
  "access": "!! Type de terrain mal défini !!",
  "city": "Plazac",
  "manager": "Wim van Oers",
  "last": "2026-06-15",
  "notes": "Piste ULM en herbe longueur 140 metres /30 mètres.  Orientation 06-24  Atterrissage 24 uniquement,  decoll. 06"
 },
 {
  "name": "Thénac",
  "lat": 44.74538,
  "lon": 0.32559,
  "country": "FR",
  "source": "BASULM",
  "url": "https://basulm.ffplum.fr/carte-des-terrains.html",
  "access": "Base ULM ouverte tous types",
  "city": "Thénac",
  "manager": "LAJOUX Martial et Marie",
  "last": "2024-08-06",
  "notes": "Pour un atterrissage en 34 ou un décollage en 16 ne pas survoler la maison à l'est dans l'axe de la piste.  piste enherbée terre très saine sous sol très filtra"
 },
 {
  "name": "Le Pas de l'Aze",
  "lat": 45.22003,
  "lon": 0.47811,
  "country": "FR",
  "source": "BASULM",
  "url": "https://basulm.ffplum.fr/carte-des-terrains.html",
  "access": "Base ULM Accès privé",
  "city": "Tocane-Saint-Apre",
  "manager": "",
  "last": "2026-01-27",
  "notes": "Piste à trouée unique : Poser en 11 (hangar à droite) et déco en 29. Éviter absolument le survol des habitations et piscines proches de la piste par respect pou"
 },
 {
  "name": "Clissac",
  "lat": 44.9103,
  "lon": 1.29128,
  "country": "FR",
  "source": "BASULM",
  "url": "https://basulm.ffplum.fr/carte-des-terrains.html",
  "access": "Base ULM Accès privé Utilisation EPISODIQUE",
  "city": "Sainte-Nathalène",
  "manager": "",
  "last": "2023-04-14",
  "notes": "Reservé exclusivement aux hélicoptères ulm - Hélisurface en herbe - se présenter au 360° - Usage restreint -"
 },
 {
  "name": "Malbec",
  "lat": 45.00778,
  "lon": 1.01611,
  "country": "FR",
  "source": "BASULM",
  "url": "https://basulm.ffplum.fr/carte-des-terrains.html",
  "access": "Base ULM Accès limité Autorisation OBLIGATOIRE",
  "city": "Fleurac",
  "manager": "en location",
  "last": "2026-04-02",
  "notes": "Trouée unique, type Altiport - pente de 7%. ATT au QFU 02, après les 2 flèches. Manche à air à hauteur du seuil 02. Verticale 2000ft, circuit 1500ft QNH, main g"
 },
 {
  "name": "Mauzens et Miremont",
  "lat": 45.00088,
  "lon": 0.90664,
  "country": "FR",
  "source": "BASULM",
  "url": "https://basulm.ffplum.fr/carte-des-terrains.html",
  "access": "Base ULM Accès limité Autorisation OBLIGATOIRE",
  "city": "Mauzens-et-Miremont",
  "manager": "UL3M",
  "last": "2024-06-24",
  "notes": "!!  Trouée unique - type altisurface - avec ATT en 04 et DEC en 22 ! Verticale terrain à 2000 ft QNH en direction du Nord Tour de piste à 1500 ft QNH à l'ouest "
 },
 {
  "name": "Campsegret",
  "lat": 44.96102,
  "lon": 0.56392,
  "country": "FR",
  "source": "BASULM",
  "url": "https://basulm.ffplum.fr/carte-des-terrains.html",
  "access": "Base ULM Accès privé",
  "city": "Campsegret",
  "manager": "Alain FILET",
  "last": "2023-04-14",
  "notes": "Tour de piste ouest main gauche 1200 ft QNH Atterrissage en 01 et décollage en 19 éviter absolument le survol des habitations Seuil décalé de 50 mètres en raiso"
 },
 {
  "name": "Moncouche",
  "lat": 45.09502,
  "lon": 0.63777,
  "country": "FR",
  "source": "BASULM",
  "url": "https://basulm.ffplum.fr/carte-des-terrains.html",
  "access": "Base ULM fermée définitivement",
  "city": "Saint-Paul-de-Serre",
  "manager": "SCHAEFFER Jean Pierre",
  "last": "2025-04-27",
  "notes": "Piste fermée !"
 },
 {
  "name": "Tieleman Aviation",
  "lat": 45.28835,
  "lon": 0.51413,
  "country": "FR",
  "source": "BASULM",
  "url": "https://basulm.ffplum.fr/carte-des-terrains.html",
  "access": "Base ULM ouverte tous types",
  "city": "Montagrier",
  "manager": "Gagnerie Christophe",
  "last": "2025-02-06",
  "notes": "Attention aux habitations, foret en bout de piste Piste 33 pour atterrissage"
 },
 {
  "name": "Lanans",
  "lat": 47.30249,
  "lon": 6.45316,
  "country": "FR",
  "source": "BASULM",
  "url": "https://basulm.ffplum.fr/carte-des-terrains.html",
  "access": "Base ULM ouverte tous types",
  "city": "Lanans",
  "manager": "Fahrni Eddy",
  "last": "2026-01-05",
  "notes": "TP 03 main droite à 2400ft TP 21 main droite à 2400ft Piste préférentielle 03 Radio auto info 125,335 Tours de piste à répétition interdit"
 },
 {
  "name": "Bonnay",
  "lat": 47.33354,
  "lon": 6.03576,
  "country": "FR",
  "source": "BASULM",
  "url": "https://basulm.ffplum.fr/carte-des-terrains.html",
  "access": "Base ULM Autorisation OBLIGATOIRE",
  "city": "Bonnay",
  "manager": "",
  "last": "2023-04-14",
  "notes": "Tour de piste côté NW à 500'QFE.  Éviter de survoler la ferme dans le tour de piste."
 },
 {
  "name": "Fournet Blancheroche",
  "lat": 47.17772,
  "lon": 6.81358,
  "country": "FR",
  "source": "BASULM",
  "url": "https://basulm.ffplum.fr/carte-des-terrains.html",
  "access": "Base ULM ouverte tous types",
  "city": "Fournet-Blancheroche",
  "manager": "Club ULM Haut Doubs",
  "last": "2023-04-14",
  "notes": "À éviter par vent de sud. Circuit main gauche pour la 05 main droite pour la 23"
 },
 {
  "name": "Arc sous Cicon",
  "lat": 47.04583,
  "lon": 6.38894,
  "country": "FR",
  "source": "BASULM",
  "url": "https://basulm.ffplum.fr/carte-des-terrains.html",
  "access": "Base ULM Accès privé",
  "city": "Arc sous Cicon",
  "manager": "Dejardin Yves",
  "last": "2023-04-14",
  "notes": "TP à l'ouest du terrain, ne pas survoler le village, TP interdit."
 },
 {
  "name": "Athose",
  "lat": 47.07674,
  "lon": 6.28954,
  "country": "FR",
  "source": "BASULM",
  "url": "https://basulm.ffplum.fr/carte-des-terrains.html",
  "access": "Base ULM ouverte tous types",
  "city": "Athose",
  "manager": "",
  "last": "2023-04-14",
  "notes": "Atterrissage 14 en montée Décollage 32 en descente Tour de piste à l'ouest Attention à la clôture électrique au seuil de piste"
 },
 {
  "name": "Liesle",
  "lat": 47.04771,
  "lon": 5.82577,
  "country": "FR",
  "source": "BASULM",
  "url": "https://basulm.ffplum.fr/carte-des-terrains.html",
  "access": "Base Paramoteurs Privée Ouverte aux ULM sur autorisation",
  "city": "Buffard",
  "manager": "OLIVIER PARAMOTEUR",
  "last": "2020-05-19",
  "notes": ""
 },
 {
  "name": "Faucon",
  "lat": 44.53694,
  "lon": 5.30861,
  "country": "FR",
  "source": "BASULM",
  "url": "https://basulm.ffplum.fr/carte-des-terrains.html",
  "access": "Aérodrome Privé Ouvert aux ULM  Utilisation EPISODIQUE",
  "city": "Chalençon",
  "manager": "",
  "last": "2026-05-20",
  "notes": "Voir consignes sur les Fiches AFPM :   https://www.afpm.fr  Aérodrome à caractéristique d'altisurface. Après de fortes ou longues pluies, possibilité que la pis"
 },
 {
  "name": "Bellegarde en Diois",
  "lat": 44.5536,
  "lon": 5.43844,
  "country": "FR",
  "source": "BASULM",
  "url": "https://basulm.ffplum.fr/carte-des-terrains.html",
  "access": "Aérodrome fermé.",
  "city": "Bellegarde-en-Diois",
  "manager": "",
  "last": "2025-12-18",
  "notes": ""
 },
 {
  "name": "Col de Bacchus",
  "lat": 44.85331,
  "lon": 5.16914,
  "country": "FR",
  "source": "BASULM",
  "url": "https://basulm.ffplum.fr/carte-des-terrains.html",
  "access": "!! Type de terrain mal défini !!",
  "city": "Plan-de-Baix",
  "manager": "",
  "last": "2026-05-20",
  "notes": "Voir consignes sur les Fiches AFPM :   https://www.afpm.fr   turbulences en entrée de piste par vent sud sol irrégulier peu aménagé - attention aux vaches parki"
 },
 {
  "name": "L'Escoulin",
  "lat": 44.81613,
  "lon": 5.22029,
  "country": "FR",
  "source": "BASULM",
  "url": "https://basulm.ffplum.fr/carte-des-terrains.html",
  "access": "!! Type de terrain mal défini !!",
  "city": "Eygluy-Escoulin",
  "manager": "AFPM",
  "last": "2026-05-20",
  "notes": "Voir consignes sur les Fiches AFPM :   https://www.afpm.fr  Parking de surface réduite au sommet Utilisation dangereuse par vent du Nord. 1 seul atterrissage (r"
 },
 {
  "name": "Etoile Rhône",
  "lat": 44.83083,
  "lon": 4.8661,
  "country": "FR",
  "source": "BASULM",
  "url": "https://basulm.ffplum.fr/carte-des-terrains.html",
  "access": "Base ULM Accès limité Autorisation OBLIGATOIRE",
  "city": "Etoile-sur-Rhône",
  "manager": "Club ULM ETOILE",
  "last": "2024-03-14",
  "notes": "Voisinage sensible, respecter strictement le tour de piste. Tour de piste à l'ouest de l'autoroute. Éviter le survol d’Étoile. Lignes électriques au sud du terr"
 },
 {
  "name": "Ratières Les Allandaines",
  "lat": 45.16606,
  "lon": 4.97915,
  "country": "FR",
  "source": "BASULM",
  "url": "https://basulm.ffplum.fr/carte-des-terrains.html",
  "access": "Base ULM Autorisation OBLIGATOIRE",
  "city": "Châteauneuf-de-Galaure",
  "manager": "Oger Gérard",
  "last": "2025-06-25",
  "notes": "18 préférentielle au décollage, 36 préférentielle à l'atterrissage  ATTENTION : Ligne électrique au seuil 18 (hauteur 6m). Donc, par vent du sud, bien visualise"
 },
 {
  "name": "Base ULM Anthony Delluc",
  "lat": 45.01202,
  "lon": 5.08392,
  "country": "FR",
  "source": "BASULM",
  "url": "https://basulm.ffplum.fr/carte-des-terrains.html",
  "access": "Base ULM Autorisation OBLIGATOIRE",
  "city": "Chatuzange-le-Goubet",
  "manager": "Delluc Claude",
  "last": "2023-04-14",
  "notes": "particularité :  on pose face au hangar en piste 12 on décolle sens inverse en piste 30  Eviter le survol des maisons au décollage, piste délicate avec du vent "
 },
 {
  "name": "Saint-Martin",
  "lat": 44.58805,
  "lon": 5.54137,
  "country": "FR",
  "source": "BASULM",
  "url": "https://basulm.ffplum.fr/carte-des-terrains.html",
  "access": "Base ULM Accès privé",
  "city": "Lesches-en-Diois",
  "manager": "Club ULM du Haut Diois \"Les engoulevents\"",
  "last": "2024-01-07",
  "notes": "Formation montagne recommandée Intégration main gauche aux deux QFU 2 atterrissages max Ne pas survoler Lesches-en-Diois et Beaurières. Site adapté à des machin"
 },
 {
  "name": "Aix en Diois",
  "lat": 44.68936,
  "lon": 5.40862,
  "country": "FR",
  "source": "BASULM",
  "url": "https://basulm.ffplum.fr/carte-des-terrains.html",
  "access": "!! Type de terrain mal défini !!",
  "city": "Aix-en-Diois",
  "manager": "",
  "last": "2026-05-07",
  "notes": "Voir consignes sur les Fiches AFPM :   https://www.afpm.fr"
 },
 {
  "name": "Saint Cyr La Campagne",
  "lat": 49.25292,
  "lon": 1.02847,
  "country": "FR",
  "source": "BASULM",
  "url": "https://basulm.ffplum.fr/carte-des-terrains.html",
  "access": "Aérodrome privé. Pas de visiteurs.",
  "city": "Saint-Cyr-la-Campagne",
  "manager": "",
  "last": "2022-11-15",
  "notes": "Visiteurs non désirés. Piste courte, style porte-avion."
 },
 {
  "name": "Berville sur Mer",
  "lat": 49.43583,
  "lon": 0.36361,
  "country": "FR",
  "source": "BASULM",
  "url": "https://basulm.ffplum.fr/carte-des-terrains.html",
  "access": "Base ULM Privé Avec Restrictions Autorisation OBLIGATOIRE",
  "city": "Berville-sur-Mer",
  "manager": "ULM V.T.T",
  "last": "2020-10-13",
  "notes": "Décollage et atterrissage en direction du lit de la seine. Au nord Vol interdit zone protégée. Au sud , Village."
 },
 {
  "name": "Les Noyers",
  "lat": 49.25979,
  "lon": 1.66136,
  "country": "FR",
  "source": "BASULM",
  "url": "https://basulm.ffplum.fr/carte-des-terrains.html",
  "access": "Base ULM Autorisation OBLIGATOIRE",
  "city": "Noyers",
  "manager": "",
  "last": "2023-04-14",
  "notes": "Tours de piste au Nord sur la 24/06 et à l'Est sur la 15/33 400FT QFE."
 },
 {
  "name": "Cesseville Ferme des Moulins",
  "lat": 49.17827,
  "lon": 0.99647,
  "country": "FR",
  "source": "BASULM",
  "url": "https://basulm.ffplum.fr/carte-des-terrains.html",
  "access": "Aérodrome fermé.",
  "city": "Cesseville",
  "manager": "Crevel François",
  "last": "2024-07-11",
  "notes": "Tour de piste: avion 700 ft/sol / ULM 500 ft/sol.  Aérodrome situé sous la TMA d'Evreux."
 },
 {
  "name": "Val de Reuil",
  "lat": 49.28157,
  "lon": 1.23154,
  "country": "FR",
  "source": "BASULM",
  "url": "https://basulm.ffplum.fr/carte-des-terrains.html",
  "access": "Aérodrome Privé Ouvert aux ULM",
  "city": "Val-de-Reuil",
  "manager": "Club d'Aviation Légère de Haute-Normandie",
  "last": "2026-01-21",
  "notes": "Verticale terrain à 1000 ft/sol. Tour de piste coté Est uniquement (repère coté Seine) à 500 ft/sol.  Après de fortes précipitations, éviter le premier tier de "
 },
 {
  "name": "La Croisille",
  "lat": 48.99259,
  "lon": 0.96682,
  "country": "FR",
  "source": "BASULM",
  "url": "https://basulm.ffplum.fr/carte-des-terrains.html",
  "access": "Aérodrome privé fermé temporairement",
  "city": "La Croisille",
  "manager": "",
  "last": "2024-10-13",
  "notes": "Observation : aérodrome privé, interdit aux avions extérieurs par arrêté préfectoral."
 },
 {
  "name": "Vesly",
  "lat": 49.23385,
  "lon": 1.63081,
  "country": "FR",
  "source": "BASULM",
  "url": "https://basulm.ffplum.fr/carte-des-terrains.html",
  "access": "Base Paramoteurs Privée Ouverte aux ULM sur autorisation",
  "city": "Vesly",
  "manager": "Exploitant",
  "last": "2026-01-20",
  "notes": "FRÉQUENCE VOL LIBRE UTILISÉ SUR LE TERRAIN 145.550Mhz FINALE OMNIDIRECTIONNEL"
 },
 {
  "name": "Champrond Le Petit Bois Landry",
  "lat": 48.39379,
  "lon": 1.0575,
  "country": "FR",
  "source": "BASULM",
  "url": "https://basulm.ffplum.fr/carte-des-terrains.html",
  "access": "Aérodrome Privé Ouvert aux ULM",
  "city": "Champrond-en-Gâtine",
  "manager": "AEROB612",
  "last": "2022-11-15",
  "notes": "Verticale terrain obligatoire à 1400 ft ASFC.  Tour de pistes : pour la piste 05R/23L de 600m  Gauche en 23 et Droite en 05 piste 05L/23R de 150m : Droite en 23"
 },
 {
  "name": "Loulappe",
  "lat": 48.4384,
  "lon": 1.2745,
  "country": "FR",
  "source": "BASULM",
  "url": "https://basulm.ffplum.fr/carte-des-terrains.html",
  "access": "Aérodrome Privé Ouvert aux ULM",
  "city": "Saint-Luperce",
  "manager": "",
  "last": "2016-10-23",
  "notes": "Tour de piste à l'ouest 500 ft sol Légère montée en 36"
 },
 {
  "name": "Santilly",
  "lat": 48.15884,
  "lon": 1.85338,
  "country": "FR",
  "source": "BASULM",
  "url": "https://basulm.ffplum.fr/carte-des-terrains.html",
  "access": "Aérodrome Privé Ouvert aux ULM",
  "city": "Santilly",
  "manager": "Albert Richard",
  "last": "2025-03-12",
  "notes": "Tours de piste côté ouest. Présence d'un hangar à proximité du seuil 36 et d'une manche à air. Champs cultivés dégagés en prolongement des 2 QFU. Attention : 2 "
 },
 {
  "name": "Fontaine Simon",
  "lat": 48.50686,
  "lon": 0.99249,
  "country": "FR",
  "source": "BASULM",
  "url": "https://basulm.ffplum.fr/carte-des-terrains.html",
  "access": "Aérodrome Privé Ouvert aux ULM",
  "city": "Fontaine-Simon",
  "manager": "",
  "last": "2018-10-23",
  "notes": "Aérodrome privé, PPR à Mr Mercier.  Tour de piste côté Nord: à gauche en 06 et à droite en 24. Survol interdit des Maisons Rouges et des hameaux."
 },
 {
  "name": "Voves Viabon",
  "lat": 48.2111,
  "lon": 1.67333,
  "country": "FR",
  "source": "BASULM",
  "url": "https://basulm.ffplum.fr/carte-des-terrains.html",
  "access": "Aérodrome Privé Ouvert aux ULM",
  "city": "Viabon",
  "manager": "",
  "last": "2025-09-28",
  "notes": "ULM : Tour de piste à 500 ft à l'ouest.  Avions : Tour de piste à 1000 ft à l'est. ! TAXIWAY SUPPRIMÉ !"
 },
 {
  "name": "Ecrosnes",
  "lat": 48.5609,
  "lon": 1.73052,
  "country": "FR",
  "source": "BASULM",
  "url": "https://basulm.ffplum.fr/carte-des-terrains.html",
  "access": "Base ULM Accès limité Autorisation OBLIGATOIRE",
  "city": "Ecrosnes",
  "manager": "",
  "last": "2023-04-14",
  "notes": "TDP au NE à 1000 ft. VERTICALE 1500 ft. Seuil décalé 85m pour la 31 et 60 m pour la 13. Vent d'ouest, turbulences au niveau du bois. Attention route au seuil de"
 },
 {
  "name": "Les Ailes d'Eure et Loir",
  "lat": 48.5923,
  "lon": 1.53761,
  "country": "FR",
  "source": "BASULM",
  "url": "https://basulm.ffplum.fr/carte-des-terrains.html",
  "access": "Aérodrome Privé Ouvert aux ULM",
  "city": "Pierres",
  "manager": "Les Ailes d'Eure et Loir",
  "last": "2021-05-18",
  "notes": "Aérodrome privé. Tour de piste au Nord-est, 1000 ft QNH. Seuil décalé en 15.  Paramoteurs secteur Sud."
 },
 {
  "name": "Houville La Branche",
  "lat": 48.45312,
  "lon": 1.62986,
  "country": "FR",
  "source": "BASULM",
  "url": "https://basulm.ffplum.fr/carte-des-terrains.html",
  "access": "Base ULM Autorisation OBLIGATOIRE",
  "city": "Houville-la-Branche",
  "manager": "",
  "last": "2023-04-14",
  "notes": "Respecter 1000 ft en verticale terrain à l'arrivée. Tour de piste à 500 ft au nord. Survol de HOUVILLE et des trois villages situés en tour de piste interdit. F"
 },
 {
  "name": "La Saussaye",
  "lat": 48.41238,
  "lon": 1.5539,
  "country": "FR",
  "source": "BASULM",
  "url": "https://basulm.ffplum.fr/carte-des-terrains.html",
  "access": "Base ULM Autorisation OBLIGATOIRE",
  "city": "Sours",
  "manager": "Base ULM du Pays Chartrain",
  "last": "2025-06-06",
  "notes": "Tour de piste 500ft QFE (1000ft QNH) par le NW. Survol du site de La Saussaye interdit (lycée agricole), bois et ferme compris. Evitez les villages environnants"
 },
 {
  "name": "La maison des pionniers",
  "lat": 48.82431,
  "lon": 1.58378,
  "country": "FR",
  "source": "BASULM",
  "url": "https://basulm.ffplum.fr/carte-des-terrains.html",
  "access": "Base ULM Accès privé",
  "city": "Saint-Lubin-de-la-Haye",
  "manager": "PROPRIETAIRE",
  "last": "2023-04-14",
  "notes": "Terrain privé : PPR : permission préalable obligatoire. Éviter absolument le survol de toute habitation (problèmes de voisinage !)"
 },
 {
  "name": "Le Buternay",
  "lat": 48.61202,
  "lon": 0.84199,
  "country": "FR",
  "source": "BASULM",
  "url": "https://basulm.ffplum.fr/carte-des-terrains.html",
  "access": "Aérodrome Privé Avec Restrictions Autorisation OBLIGATOIRE",
  "city": "La Ferté-Vidame",
  "manager": "Christophe HOUDAILLE",
  "last": "2023-07-05",
  "notes": ""
 },
 {
  "name": "Club PPO",
  "lat": 48.76742,
  "lon": 1.54062,
  "country": "FR",
  "source": "BASULM",
  "url": "https://basulm.ffplum.fr/carte-des-terrains.html",
  "access": "Base Paramoteurs Privée Ouverte aux ULM sur autorisation",
  "city": "Goussainville",
  "manager": "Le Club PPO",
  "last": "2026-01-25",
  "notes": ""
 },
 {
  "name": "Les Ailes d'Horus",
  "lat": 48.49221,
  "lon": 1.76318,
  "country": "FR",
  "source": "BASULM",
  "url": "https://basulm.ffplum.fr/carte-des-terrains.html",
  "access": "Base Paramoteurs Privée Ouverte aux ULM sur autorisation",
  "city": "Levainville",
  "manager": "Biegnon Romain",
  "last": "2016-01-25",
  "notes": "PARAMOTEURS"
 },
 {
  "name": "Plouarzel",
  "lat": 48.42259,
  "lon": -4.69696,
  "country": "FR",
  "source": "BASULM",
  "url": "https://basulm.ffplum.fr/carte-des-terrains.html",
  "access": "Base ULM Accès privé",
  "city": "Plouarzel",
  "manager": "Patrick Hamonet",
  "last": "2023-04-14",
  "notes": "Présence d'aéromodélisme (activité 8952 - plafond 1000ft) Faire verticale piste Priorité donnée aux ULM"
 },
 {
  "name": "Poullaouen Le Stancou",
  "lat": 48.3572,
  "lon": -3.66328,
  "country": "FR",
  "source": "BASULM",
  "url": "https://basulm.ffplum.fr/carte-des-terrains.html",
  "access": "Règles spécifiques d'accès",
  "city": "Poullaouen",
  "manager": "Plassart Laurent",
  "last": "2025-12-08",
  "notes": "Tour de piste main gauche  Par vent fort d'ouest et d'est, rabattants créés par les arbres bordant la piste. Légèrement descendante QFU 34  QFU 16 préférentiell"
 },